[
  {
    "business_id": "kW3YH9H1rmO_B8JQcywZRg",
    "name": "SEPHORA",
    "address": "199 Boylston St",
    "city": "Chestnut Hill",
    "state": "MA",
    "postal_code": "02467",
    "latitude": 42.3215125,
    "longitude": -71.1756718,
    "stars": 3.5,
    "review_count": 42,
    "is_open": 1,
    "attributes": {
      "RestaurantsPriceRange2": "2",
      "BikeParking": "False",
      "BusinessParking": "{'garage': False, 'street': False, 'validated': False, 'lot': True, 'valet': False}",
      "ByAppointmentOnly": "False",
      "BusinessAcceptsCreditCards": "True",
      "RestaurantsTakeOut": "True",
      "RestaurantsDelivery": "False"
    },
    "categories": "Shopping, Cosmetics & Beauty Supply, Beauty & Spas",
    "hours": {
      "Monday": "11:0-19:0",
      "Tuesday": "11:0-19:0",
      "Wednesday": "11:0-19:0",
      "Thursday": "11:0-18:0",
      "Friday": "12:0-18:0",
      "Saturday": "11:0-19:0",
      "Sunday": "12:0-18:0"
    }
  },
  {
    "business_id": "toF2O0OXTDEMRwAjBbOZuQ",
    "name": "SEPHORA",
    "address": "4200 Conroy Rd, Space# H-224",
    "city": "Orlando",
    "state": "FL",
    "postal_code": "32839",
    "latitude": 28.486009,
    "longitude": -81.431786,
    "stars": 4.0,
    "review_count": 48,
    "is_open": 1,
    "attributes": {
      "BusinessAcceptsCreditCards": "True",
      "ByAppointmentOnly": "False",
      "BusinessParking": "{'garage': False, 'street': False, 'validated': False, 'lot': False, 'valet': False}",
      "RestaurantsPriceRange2": "2",
      "BikeParking": "False",
      "RestaurantsDelivery": "False",
      "RestaurantsTakeOut": "True"
    },
    "categories": "Beauty & Spas, Shopping, Cosmetics & Beauty Supply",
    "hours": {
      "Monday": "11:0-19:0",
      "Tuesday": "11:0-19:0",
      "Wednesday": "11:0-19:0",
      "Thursday": "11:0-19:0",
      "Friday": "11:0-19:0",
      "Saturday": "11:0-19:0",
      "Sunday": "11:0-19:0"
    }
  },
  {
    "business_id": "q-20ByCuH1cD20JKiyscCA",
    "name": "SEPHORA",
    "address": "12000 SE 82nd Ave, Ste 1070",
    "city": "Portland",
    "state": "OR",
    "postal_code": "97086",
    "latitude": 45.4342338,
    "longitude": -122.5723687,
    "stars": 3.0,
    "review_count": 50,
    "is_open": 1,
    "attributes": {
      "ByAppointmentOnly": "False",
      "BusinessParking": "{'garage': False, 'street': False, 'validated': False, 'lot': False, 'valet': False}",
      "BusinessAcceptsCreditCards": "True",
      "RestaurantsPriceRange2": "2",
      "BikeParking": "True",
      "RestaurantsDelivery": "False",
      "RestaurantsTakeOut": "True"
    },
    "categories": "Shopping, Beauty & Spas, Cosmetics & Beauty Supply",
    "hours": {
      "Monday": "10:0-21:0",
      "Tuesday": "10:0-21:0",
      "Wednesday": "10:0-21:0",
      "Thursday": "10:0-18:0",
      "Friday": "10:0-18:0",
      "Saturday": "11:0-20:0",
      "Sunday": "11:0-19:0"
    }
  },
  {
    "business_id": "onwP5McHh-GCrMLvjQg-Sg",
    "name": "SEPHORA",
    "address": "701 N Alafaya Trl, Space 0S01B",
    "city": "Orlando",
    "state": "FL",
    "postal_code": "32828",
    "latitude": 28.5545244,
    "longitude": -81.2041694,
    "stars": 4.5,
    "review_count": 13,
    "is_open": 1,
    "attributes": {
      "RestaurantsDelivery": "False",
      "RestaurantsTakeOut": "True",
      "BusinessParking": "{'garage': False, 'street': False, 'validated': False, 'lot': False, 'valet': False}"
    },
    "categories": "Beauty & Spas, Shopping, Cosmetics & Beauty Supply",
    "hours": {
      "Monday": "11:0-19:0",
      "Tuesday": "11:0-19:0",
      "Wednesday": "11:0-19:0",
      "Thursday": "11:0-18:0",
      "Friday": "11:0-18:0",
      "Saturday": "10:0-20:0",
      "Sunday": "12:0-18:0"
    }
  },
  {
    "business_id": "UwGF1bm4trVKBWAI6lvZUQ",
    "name": "SEPHORA",
    "address": "769 Main Street",
    "city": "West Vancouver",
    "state": "BC",
    "postal_code": "V7T 0A5",
    "latitude": 49.3266067,
    "longitude": -123.138611,
    "stars": 3.0,
    "review_count": 16,
    "is_open": 1,
    "attributes": {
      "ByAppointmentOnly": "False",
      "BusinessParking": "{'garage': False, 'street': False, 'validated': False, 'lot': False, 'valet': False}",
      "RestaurantsPriceRange2": "2",
      "BikeParking": "True",
      "RestaurantsTakeOut": "True",
      "RestaurantsDelivery": "False"
    },
    "categories": "Shopping, Beauty & Spas, Cosmetics & Beauty Supply",
    "hours": {
      "Monday": "11:0-19:0",
      "Tuesday": "11:0-19:0",
      "Wednesday": "11:0-19:0",
      "Thursday": "11:0-17:0",
      "Friday": "11:0-17:0",
      "Saturday": "11:0-19:0",
      "Sunday": "11:0-17:0"
    }
  },
  {
    "business_id": "gDZRbX3NQ-WBxSkW8ejuZQ",
    "name": "SEPHORA",
    "address": "1140 Cumberland Mall",
    "city": "Atlanta",
    "state": "GA",
    "postal_code": "30339",
    "latitude": 33.880009,
    "longitude": -84.468351,
    "stars": 3.5,
    "review_count": 23,
    "is_open": 1,
    "attributes": {
      "BusinessAcceptsCreditCards": "True",
      "BikeParking": "False",
      "ByAppointmentOnly": "False",
      "RestaurantsPriceRange2": "3",
      "RestaurantsDelivery": "False",
      "RestaurantsTakeOut": "True",
      "BusinessParking": "{'garage': False, 'street': False, 'validated': False, 'lot': True, 'valet': False}"
    },
    "categories": "Skin Care, Cosmetics & Beauty Supply, Shopping, Beauty & Spas",
    "hours": {
      "Monday": "10:0-21:0",
      "Tuesday": "10:0-21:0",
      "Wednesday": "10:0-21:0",
      "Thursday": "10:0-18:0",
      "Friday": "10:0-18:0",
      "Saturday": "10:0-20:0",
      "Sunday": "11:0-19:0"
    }
  },
  {
    "business_id": "E2uLFUzTWV1ha4Xff_hX8w",
    "name": "SEPHORA",
    "address": "2001 W Osceola Pkwy",
    "city": "Kissimmee",
    "state": "FL",
    "postal_code": "34741",
    "latitude": 28.3430426781,
    "longitude": -81.4256938,
    "stars": 4.0,
    "review_count": 12,
    "is_open": 1,
    "attributes": {
      "ByAppointmentOnly": "False",
      "BusinessAcceptsCreditCards": "True",
      "RestaurantsPriceRange2": "2"
    },
    "categories": "Beauty & Spas, Shopping, Cosmetics & Beauty Supply",
    "hours": {
      "Monday": "10:0-21:0",
      "Tuesday": "10:0-21:0",
      "Wednesday": "10:0-21:0",
      "Thursday": "10:0-21:0",
      "Friday": "10:0-21:0",
      "Saturday": "10:0-21:0",
      "Sunday": "11:0-18:0"
    }
  },
  {
    "business_id": "KxJUWDBchVqN6nPc54MtHA",
    "name": "Sephora",
    "address": "8900 NE Vancouver Mall Dr",
    "city": "Vancouver",
    "state": "WA",
    "postal_code": "98662",
    "latitude": 45.658793,
    "longitude": -122.581441,
    "stars": 3.5,
    "review_count": 19,
    "is_open": 1,
    "attributes": {
      "RestaurantsPriceRange2": "3",
      "BusinessAcceptsCreditCards": "True",
      "ByAppointmentOnly": "False",
      "BusinessParking": "{'garage': False, 'street': False, 'validated': False, 'lot': True, 'valet': False}"
    },
    "categories": "Beauty & Spas, Shopping, Cosmetics & Beauty Supply",
    "hours": {
      "Monday": "10:0-21:0",
      "Tuesday": "10:0-21:0",
      "Wednesday": "10:0-21:0",
      "Thursday": "10:0-21:0",
      "Friday": "10:0-21:0",
      "Saturday": "10:0-21:0",
      "Sunday": "11:0-18:0"
    }
  },
  {
    "business_id": "_ydyMbUk6Yu0c5QSrl6VwQ",
    "name": "SEPHORA",
    "address": "11700 Rock Rose Ave, Ste 130",
    "city": "Austin",
    "state": "TX",
    "postal_code": "78758",
    "latitude": 30.4033455,
    "longitude": -97.7226028,
    "stars": 2.5,
    "review_count": 36,
    "is_open": 1,
    "attributes": {
      "ByAppointmentOnly": "False",
      "RestaurantsPriceRange2": "2",
      "BusinessParking": "{'garage': True, 'street': False, 'validated': False, 'lot': False, 'valet': False}",
      "BusinessAcceptsCreditCards": "True",
      "BikeParking": "True",
      "RestaurantsTakeOut": "True",
      "RestaurantsDelivery": "False"
    },
    "categories": "Perfume, Cosmetics & Beauty Supply, Shopping, Skin Care, Makeup Artists, Beauty & Spas",
    "hours": {
      "Monday": "11:0-19:0",
      "Tuesday": "11:0-19:0",
      "Wednesday": "11:0-19:0",
      "Thursday": "11:0-19:0",
      "Friday": "11:0-19:0",
      "Saturday": "11:0-19:0",
      "Sunday": "12:0-18:0"
    }
  },
  {
    "business_id": "4yfHGHb1CQnkA1RRwF-UcQ",
    "name": "SEPHORA",
    "address": "98 Derby St, Unit  411",
    "city": "Hingham",
    "state": "MA",
    "postal_code": "02043",
    "latitude": 42.1770218,
    "longitude": -70.9113035,
    "stars": 2.5,
    "review_count": 11,
    "is_open": 1,
    "attributes": {
      "RestaurantsDelivery": "False",
      "RestaurantsTakeOut": "True"
    },
    "categories": "Beauty & Spas, Shopping, Cosmetics & Beauty Supply",
    "hours": {
      "Monday": "10:0-20:0",
      "Tuesday": "10:0-20:0",
      "Wednesday": "10:0-20:0",
      "Thursday": "10:0-17:0",
      "Friday": "10:0-17:0",
      "Saturday": "10:0-20:0",
      "Sunday": "11:0-18:0"
    }
  },
  {
    "business_id": "OR4vUGnCNSa-f4YU3bK4xg",
    "name": "SEPHORA",
    "address": "1500 Polaris Pkwy",
    "city": "Columbus",
    "state": "OH",
    "postal_code": "43240",
    "latitude": 40.1456242,
    "longitude": -82.9820576,
    "stars": 4.0,
    "review_count": 29,
    "is_open": 1,
    "attributes": {
      "BusinessAcceptsCreditCards": "True",
      "RestaurantsPriceRange2": "3",
      "ByAppointmentOnly": "False",
      "BusinessParking": "{'garage': False, 'street': False, 'validated': False, 'lot': True, 'valet': False}",
      "BikeParking": "False",
      "RestaurantsTakeOut": "True",
      "RestaurantsDelivery": "False"
    },
    "categories": "Beauty & Spas, Cosmetics & Beauty Supply, Shopping",
    "hours": {
      "Monday": "11:0-20:0",
      "Tuesday": "11:0-20:0",
      "Wednesday": "11:0-20:0",
      "Thursday": "11:0-18:0",
      "Friday": "12:0-18:0",
      "Saturday": "10:0-21:0",
      "Sunday": "12:0-18:0"
    }
  },
  {
    "business_id": "AUgbzyNk5hHHPqeC9iG4Iw",
    "name": "SEPHORA",
    "address": "1755 29th St, Space  1086",
    "city": "Boulder",
    "state": "CO",
    "postal_code": "80301",
    "latitude": 40.0178988,
    "longitude": -105.2563885,
    "stars": 3.5,
    "review_count": 48,
    "is_open": 1,
    "attributes": {
      "BusinessAcceptsCreditCards": "True",
      "BusinessParking": "{'garage': False, 'street': True, 'validated': False, 'lot': False, 'valet': False}",
      "RestaurantsPriceRange2": "3",
      "BikeParking": "True",
      "ByAppointmentOnly": "False",
      "RestaurantsDelivery": "False",
      "RestaurantsTakeOut": "True"
    },
    "categories": "Shopping, Cosmetics & Beauty Supply, Beauty & Spas",
    "hours": {
      "Monday": "10:0-19:0",
      "Tuesday": "10:0-19:0",
      "Wednesday": "10:0-19:0",
      "Thursday": "10:0-18:0",
      "Friday": "10:0-18:0",
      "Saturday": "10:0-19:0",
      "Sunday": "11:0-18:0"
    }
  },
  {
    "business_id": "86mK0VaQxAzGrwM-WoWnzw",
    "name": "SEPHORA",
    "address": "650 North Ave NE, Space #S104",
    "city": "Atlanta",
    "state": "GA",
    "postal_code": "30308",
    "latitude": 33.771866824,
    "longitude": -84.3667254487,
    "stars": 4.0,
    "review_count": 33,
    "is_open": 1,
    "attributes": {
      "RestaurantsPriceRange2": "2",
      "BikeParking": "True",
      "ByAppointmentOnly": "False",
      "BusinessParking": "{'garage': True, 'street': False, 'validated': False, 'lot': True, 'valet': False}",
      "BusinessAcceptsCreditCards": "True",
      "RestaurantsDelivery": "False",
      "RestaurantsTakeOut": "True"
    },
    "categories": "Cosmetics & Beauty Supply, Shopping, Skin Care, Beauty & Spas",
    "hours": {
      "Monday": "10:0-21:0",
      "Tuesday": "10:0-21:0",
      "Wednesday": "10:0-21:0",
      "Thursday": "12:0-18:0",
      "Friday": "12:0-18:0",
      "Saturday": "10:0-21:0",
      "Sunday": "11:0-19:0"
    }
  },
  {
    "business_id": "3iExBNijNUYPuxsUwAgLAg",
    "name": "SEPHORA",
    "address": "413 SW Morrison St",
    "city": "Portland",
    "state": "OR",
    "postal_code": "97204",
    "latitude": 45.5189284,
    "longitude": -122.6767943,
    "stars": 3.5,
    "review_count": 107,
    "is_open": 1,
    "attributes": {
      "RestaurantsPriceRange2": "2",
      "BusinessParking": "{'garage': False, 'street': True, 'validated': False, 'lot': False, 'valet': False}",
      "ByAppointmentOnly": "False",
      "BikeParking": "True",
      "BusinessAcceptsCreditCards": "True",
      "RestaurantsDelivery": "False",
      "RestaurantsTakeOut": "True"
    },
    "categories": "Cosmetics & Beauty Supply, Shopping, Beauty & Spas",
    "hours": {
      "Monday": "11:0-18:0",
      "Tuesday": "11:0-18:0",
      "Wednesday": "11:0-18:0",
      "Thursday": "11:0-17:0",
      "Friday": "11:0-17:0",
      "Saturday": "11:0-18:0",
      "Sunday": "11:0-18:0"
    }
  },
  {
    "business_id": "WmmFox_6K-J5LmlFF7xzbw",
    "name": "SEPHORA",
    "address": "1060 N Orlando Ave",
    "city": "Winter Park",
    "state": "FL",
    "postal_code": "32789",
    "latitude": 28.6076936,
    "longitude": -81.3649038,
    "stars": 4.5,
    "review_count": 15,
    "is_open": 1,
    "attributes": {
      "DogsAllowed": "False",
      "BusinessParking": "{'garage': False, 'street': False, 'validated': False, 'lot': True, 'valet': False}",
      "RestaurantsPriceRange2": "2",
      "BusinessAcceptsCreditCards": "True",
      "RestaurantsDelivery": "False",
      "RestaurantsTakeOut": "True",
      "ByAppointmentOnly": "False"
    },
    "categories": "Beauty & Spas, Cosmetics & Beauty Supply, Shopping",
    "hours": {
      "Monday": "10:0-19:0",
      "Tuesday": "10:0-19:0",
      "Wednesday": "10:0-19:0",
      "Thursday": "10:0-17:0",
      "Friday": "12:0-17:0",
      "Saturday": "10:0-20:0",
      "Sunday": "11:0-18:0"
    }
  },
  {
    "business_id": "t1sTnnAPEa9UgxuQa8w7Dw",
    "name": "SEPHORA",
    "address": "800 Boylston St, Space 157",
    "city": "Boston",
    "state": "MA",
    "postal_code": "02199",
    "latitude": 42.3483326,
    "longitude": -71.082475,
    "stars": 3.5,
    "review_count": 270,
    "is_open": 1,
    "attributes": {
      "BusinessParking": "{'garage': True, 'street': False, 'validated': False, 'lot': False, 'valet': False}",
      "ByAppointmentOnly": "False",
      "BusinessAcceptsCreditCards": "True",
      "RestaurantsPriceRange2": "2",
      "BikeParking": "True",
      "RestaurantsDelivery": "False",
      "WheelchairAccessible": "True",
      "RestaurantsTakeOut": "True"
    },
    "categories": "Fashion, Beauty & Spas, Department Stores, Cosmetics & Beauty Supply, Shopping",
    "hours": {
      "Monday": "11:0-20:0",
      "Tuesday": "11:0-20:0",
      "Wednesday": "11:0-20:0",
      "Thursday": "11:0-18:0",
      "Friday": "11:0-19:0",
      "Saturday": "11:0-20:0",
      "Sunday": "11:0-19:0"
    }
  },
  {
    "business_id": "eerQn-FDlltuN1KLevSvxA",
    "name": "SEPHORA",
    "address": "2929 Barnet Highway, Unit #2730",
    "city": "Coquitlam",
    "state": "BC",
    "postal_code": "V3B 5R5",
    "latitude": 49.2806294853,
    "longitude": -122.7986003675,
    "stars": 3.5,
    "review_count": 26,
    "is_open": 1,
    "attributes": {
      "BikeParking": "True",
      "ByAppointmentOnly": "False",
      "RestaurantsPriceRange2": "3",
      "BusinessParking": "{'garage': False, 'street': False, 'validated': False, 'lot': True, 'valet': False}",
      "RestaurantsDelivery": "False",
      "RestaurantsTakeOut": "True"
    },
    "categories": "Shopping, Cosmetics & Beauty Supply, Beauty & Spas",
    "hours": {
      "Monday": "11:0-19:0",
      "Tuesday": "11:0-19:0",
      "Wednesday": "11:0-19:0",
      "Thursday": "10:0-17:0",
      "Friday": "11:0-18:0",
      "Saturday": "11:0-18:0",
      "Sunday": "11:0-18:0"
    }
  },
  {
    "business_id": "bb6xs5xUCt8I7Ld9qeKOEw",
    "name": "Sephora",
    "address": "4174 The Strand, Ste 321",
    "city": "Columbus",
    "state": "OH",
    "postal_code": "43219",
    "latitude": 40.0536246122,
    "longitude": -82.9147524531,
    "stars": 3.0,
    "review_count": 29,
    "is_open": 1,
    "attributes": {
      "BikeParking": "True",
      "BusinessAcceptsCreditCards": "True",
      "ByAppointmentOnly": "False",
      "RestaurantsPriceRange2": "2",
      "BusinessParking": "{'garage': True, 'street': True, 'validated': False, 'lot': True, 'valet': False}"
    },
    "categories": "Cosmetics & Beauty Supply, Beauty & Spas, Shopping",
    "hours": null
  },
  {
    "business_id": "wAeQybvumwClVR68Egk_4g",
    "name": "Sephora",
    "address": "19005 SE Mill Plain Blvd",
    "city": "Vancouver",
    "state": "WA",
    "postal_code": "98683",
    "latitude": 45.6149854,
    "longitude": -122.4777794,
    "stars": 4.5,
    "review_count": 7,
    "is_open": 0,
    "attributes": {
      "ByAppointmentOnly": "False",
      "BusinessAcceptsCreditCards": "True",
      "BikeParking": "None",
      "RestaurantsPriceRange2": "2",
      "BusinessParking": "{'garage': False, 'street': False, 'validated': False, 'lot': False, 'valet': False}"
    },
    "categories": "Cosmetics & Beauty Supply, Beauty & Spas, Shopping",
    "hours": {
      "Monday": "10:0-21:0",
      "Tuesday": "10:0-21:0",
      "Wednesday": "10:0-21:0",
      "Thursday": "10:0-21:0",
      "Friday": "10:0-21:0",
      "Saturday": "10:0-21:0",
      "Sunday": "11:0-18:0"
    }
  },
  {
    "business_id": "k4-RDAoPEGQVy1kOIawL1w",
    "name": "SEPHORA",
    "address": "701 W Georgia Street",
    "city": "Vancouver",
    "state": "BC",
    "postal_code": "V7Y 1E4",
    "latitude": 49.2833332,
    "longitude": -123.117736,
    "stars": 4.0,
    "review_count": 89,
    "is_open": 1,
    "attributes": {
      "RestaurantsPriceRange2": "3",
      "BikeParking": "True",
      "ByAppointmentOnly": "False",
      "BusinessParking": "{'garage': True, 'street': False, 'validated': False, 'lot': False, 'valet': False}",
      "RestaurantsDelivery": "False",
      "RestaurantsTakeOut": "True"
    },
    "categories": "Cosmetics & Beauty Supply, Beauty & Spas, Shopping",
    "hours": {
      "Monday": "10:0-19:0",
      "Tuesday": "10:0-19:0",
      "Wednesday": "10:0-21:0",
      "Thursday": "10:0-17:0",
      "Friday": "11:0-18:0",
      "Saturday": "10:0-20:0",
      "Sunday": "11:0-19:0"
    }
  },
  {
    "business_id": "nnT0_HkdJyY3zVao8yGU8w",
    "name": "SEPHORA",
    "address": "4400 Ashford Dunwoody Rd, Space 1585",
    "city": "Atlanta",
    "state": "GA",
    "postal_code": "30346",
    "latitude": 33.9243337122,
    "longitude": -84.3418209156,
    "stars": 2.5,
    "review_count": 66,
    "is_open": 1,
    "attributes": {
      "RestaurantsPriceRange2": "2",
      "BikeParking": "False",
      "BusinessAcceptsCreditCards": "True",
      "ByAppointmentOnly": "False",
      "RestaurantsDelivery": "False",
      "BusinessParking": "{'garage': False, 'street': False, 'validated': False, 'lot': True, 'valet': False}",
      "RestaurantsTakeOut": "True"
    },
    "categories": "Shopping, Beauty & Spas, Cosmetics & Beauty Supply",
    "hours": {
      "Monday": "10:0-21:0",
      "Tuesday": "10:0-21:0",
      "Wednesday": "10:0-21:0",
      "Thursday": "10:0-18:0",
      "Friday": "10:0-18:0",
      "Saturday": "10:0-20:0",
      "Sunday": "12:0-19:0"
    }
  },
  {
    "business_id": "dE2l6IJ8Xck0x1CcFAO02A",
    "name": "SEPHORA",
    "address": "8001 S Orange Blossom Trl",
    "city": "Orlando",
    "state": "FL",
    "postal_code": "32809",
    "latitude": 28.4465340832,
    "longitude": -81.398589937,
    "stars": 3.5,
    "review_count": 33,
    "is_open": 1,
    "attributes": {
      "ByAppointmentOnly": "False",
      "BusinessParking": "{'garage': False, 'street': False, 'validated': False, 'lot': True, 'valet': False}",
      "BusinessAcceptsCreditCards": "True",
      "RestaurantsPriceRange2": "3",
      "BikeParking": "False",
      "RestaurantsTakeOut": "True",
      "RestaurantsDelivery": "False"
    },
    "categories": "Shopping, Cosmetics & Beauty Supply, Beauty & Spas",
    "hours": {
      "Monday": "10:0-21:0",
      "Tuesday": "10:0-21:0",
      "Wednesday": "10:0-21:0",
      "Thursday": "10:0-18:0",
      "Friday": "10:0-20:0",
      "Saturday": "10:0-21:0",
      "Sunday": "12:0-19:0"
    }
  },
  {
    "business_id": "XyOnD_Gnd5B-HuPvu7c3zQ",
    "name": "Sephora",
    "address": "310 Towne Center Cir",
    "city": "Sanford",
    "state": "FL",
    "postal_code": "32771",
    "latitude": 28.8047682,
    "longitude": -81.3389374,
    "stars": 2.5,
    "review_count": 7,
    "is_open": 1,
    "attributes": {
      "ByAppointmentOnly": "False",
      "BusinessParking": "{'garage': False, 'street': False, 'validated': False, 'lot': False, 'valet': False}",
      "BusinessAcceptsCreditCards": "True",
      "RestaurantsPriceRange2": "3"
    },
    "categories": "Beauty & Spas, Cosmetics & Beauty Supply, Shopping",
    "hours": {
      "Monday": "10:0-21:0",
      "Tuesday": "10:0-21:0",
      "Wednesday": "10:0-21:0",
      "Thursday": "10:0-21:0",
      "Friday": "10:0-21:0",
      "Saturday": "10:0-21:0",
      "Sunday": "12:0-18:0"
    }
  },
  {
    "business_id": "ihYbIzIHFlFgLXtptKeQIA",
    "name": "SEPHORA",
    "address": "75 Middlesex Tpke",
    "city": "Burlington",
    "state": "MA",
    "postal_code": "01803",
    "latitude": 42.4822898,
    "longitude": -71.2135439,
    "stars": 3.0,
    "review_count": 74,
    "is_open": 1,
    "attributes": {
      "BusinessAcceptsCreditCards": "True",
      "RestaurantsPriceRange2": "3",
      "BikeParking": "True",
      "BusinessParking": "{'garage': False, 'street': False, 'validated': False, 'lot': True, 'valet': False}",
      "ByAppointmentOnly": "False",
      "RestaurantsTakeOut": "True",
      "RestaurantsDelivery": "False"
    },
    "categories": "Shopping, Beauty & Spas, Cosmetics & Beauty Supply",
    "hours": {
      "Monday": "10:0-20:0",
      "Tuesday": "10:0-20:0",
      "Wednesday": "10:0-20:0",
      "Thursday": "10:0-18:0",
      "Friday": "10:0-18:0",
      "Saturday": "10:0-20:0",
      "Sunday": "11:0-18:0"
    }
  },
  {
    "business_id": "iPapCIWs9BOTlamAhTDsIw",
    "name": "SEPHORA",
    "address": "7 North St",
    "city": "Boston",
    "state": "MA",
    "postal_code": "02109",
    "latitude": 42.3603481702,
    "longitude": -71.056306,
    "stars": 3.0,
    "review_count": 34,
    "is_open": 1,
    "attributes": {
      "RestaurantsPriceRange2": "2",
      "BikeParking": "True",
      "BusinessParking": "{'garage': True, 'street': False, 'validated': False, 'lot': False, 'valet': False}",
      "BusinessAcceptsCreditCards": "True",
      "ByAppointmentOnly": "False",
      "DogsAllowed": "False",
      "RestaurantsDelivery": "False",
      "RestaurantsTakeOut": "True"
    },
    "categories": "Cosmetics & Beauty Supply, Shopping, Beauty & Spas",
    "hours": {
      "Monday": "11:0-19:0",
      "Tuesday": "11:0-19:0",
      "Wednesday": "11:0-19:0",
      "Thursday": "11:0-19:0",
      "Friday": "11:0-19:0",
      "Saturday": "11:0-19:0",
      "Sunday": "12:0-18:0"
    }
  },
  {
    "business_id": "ktF8pYE8wn0ckMs4uuPRbg",
    "name": "SEPHORA",
    "address": "1245 Worcester St",
    "city": "Natick",
    "state": "MA",
    "postal_code": "01760",
    "latitude": 42.3010393,
    "longitude": -71.3836942,
    "stars": 3.5,
    "review_count": 30,
    "is_open": 1,
    "attributes": {
      "ByAppointmentOnly": "False",
      "BusinessParking": "{'garage': True, 'street': False, 'validated': False, 'lot': False, 'valet': False}",
      "BikeParking": "False",
      "RestaurantsPriceRange2": "3",
      "BusinessAcceptsCreditCards": "True",
      "RestaurantsDelivery": "False",
      "RestaurantsTakeOut": "True"
    },
    "categories": "Cosmetics & Beauty Supply, Beauty & Spas, Shopping",
    "hours": {
      "Monday": "11:0-19:0",
      "Tuesday": "11:0-19:0",
      "Wednesday": "10:0-21:0",
      "Thursday": "10:0-18:0",
      "Friday": "10:0-18:0",
      "Saturday": "10:0-20:0",
      "Sunday": "11:0-19:0"
    }
  },
  {
    "business_id": "fmt6HaKh1v_hkJfXWQpUow",
    "name": "SEPHORA",
    "address": "720 Market St",
    "city": "Lynnfield",
    "state": "MA",
    "postal_code": "01940",
    "latitude": 42.5156449,
    "longitude": -71.0356457,
    "stars": 2.0,
    "review_count": 25,
    "is_open": 1,
    "attributes": {
      "RestaurantsPriceRange2": "2",
      "BusinessAcceptsCreditCards": "True",
      "BusinessParking": "{'garage': False, 'street': False, 'validated': False, 'lot': True, 'valet': False}",
      "ByAppointmentOnly": "False",
      "RestaurantsTakeOut": "True",
      "RestaurantsDelivery": "False"
    },
    "categories": "Shopping, Beauty & Spas, Skin Care, Cosmetics & Beauty Supply",
    "hours": {
      "Monday": "10:0-20:0",
      "Tuesday": "10:0-20:0",
      "Wednesday": "10:0-20:0",
      "Thursday": "10:0-18:0",
      "Friday": "10:0-20:0",
      "Saturday": "10:0-20:0",
      "Sunday": "11:0-18:0"
    }
  },
  {
    "business_id": "B9q0I-umid5ONCkv1nqojw",
    "name": "SEPHORA",
    "address": "2310A - 4700 Kingsway",
    "city": "Burnaby",
    "state": "BC",
    "postal_code": "V5H 4P1",
    "latitude": 49.226997,
    "longitude": -123.000476,
    "stars": 3.0,
    "review_count": 47,
    "is_open": 1,
    "attributes": {
      "BusinessParking": "{'garage': True, 'street': False, 'validated': False, 'lot': False, 'valet': False}",
      "ByAppointmentOnly": "False",
      "RestaurantsPriceRange2": "3",
      "RestaurantsTakeOut": "True",
      "BikeParking": "True",
      "RestaurantsDelivery": "False"
    },
    "categories": "Cosmetics & Beauty Supply, Beauty & Spas, Shopping",
    "hours": {
      "Monday": "10:0-21:0",
      "Tuesday": "10:0-21:0",
      "Wednesday": "10:0-21:0",
      "Thursday": "10:0-21:0",
      "Friday": "10:0-21:0",
      "Saturday": "10:0-21:0",
      "Sunday": "11:0-19:0"
    }
  },
  {
    "business_id": "u4-ICBiK9xVWUeQg7Ch_yw",
    "name": "SEPHORA",
    "address": "7397 Bridgeport Rd, Space #C-104",
    "city": "Tigard",
    "state": "OR",
    "postal_code": "97224",
    "latitude": 45.3963704,
    "longitude": -122.7526951,
    "stars": 3.5,
    "review_count": 11,
    "is_open": 1,
    "attributes": {
      "BusinessParking": "{'garage': False, 'street': False, 'validated': False, 'lot': False, 'valet': False}",
      "RestaurantsDelivery": "False",
      "RestaurantsTakeOut": "True"
    },
    "categories": "Beauty & Spas, Cosmetics & Beauty Supply, Shopping",
    "hours": {
      "Monday": "10:0-19:0",
      "Tuesday": "10:0-19:0",
      "Wednesday": "10:0-19:0",
      "Thursday": "10:0-18:0",
      "Friday": "11:0-18:0",
      "Saturday": "10:0-19:0",
      "Sunday": "11:0-18:0"
    }
  },
  {
    "business_id": "DUdFVKexLsd-BV1W7SGjJQ",
    "name": "SEPHORA",
    "address": "9722 Great Hills Trl, Ste 115",
    "city": "Austin",
    "state": "TX",
    "postal_code": "78759",
    "latitude": 30.3955849,
    "longitude": -97.7517712,
    "stars": 4.0,
    "review_count": 135,
    "is_open": 1,
    "attributes": {
      "BikeParking": "True",
      "BusinessParking": "{'garage': False, 'street': False, 'validated': False, 'lot': True, 'valet': False}",
      "ByAppointmentOnly": "False",
      "BusinessAcceptsCreditCards": "True",
      "RestaurantsPriceRange2": "2",
      "RestaurantsTakeOut": "True",
      "RestaurantsDelivery": "False"
    },
    "categories": "Makeup Artists, Cosmetics & Beauty Supply, Shopping, Beauty & Spas, Skin Care",
    "hours": {
      "Monday": "11:0-18:0",
      "Tuesday": "11:0-18:0",
      "Wednesday": "11:0-18:0",
      "Thursday": "11:0-18:0",
      "Friday": "11:0-18:0",
      "Saturday": "11:0-18:0",
      "Sunday": "12:0-18:0"
    }
  },
  {
    "business_id": "-6LpCDwGgVgsiDBT0TFLZg",
    "name": "SEPHORA",
    "address": "2345 S Hwy 27",
    "city": "Clermont",
    "state": "FL",
    "postal_code": "34711",
    "latitude": 28.538516,
    "longitude": -81.734772,
    "stars": 2.5,
    "review_count": 9,
    "is_open": 1,
    "attributes": {
      "BikeParking": "False",
      "BusinessParking": "{'garage': False, 'street': False, 'validated': False, 'lot': False, 'valet': False}",
      "RestaurantsPriceRange2": "2",
      "ByAppointmentOnly": "False",
      "BusinessAcceptsCreditCards": "True"
    },
    "categories": "Cosmetics & Beauty Supply, Shopping, Beauty & Spas",
    "hours": {
      "Monday": "10:0-21:0",
      "Tuesday": "10:0-21:0",
      "Wednesday": "10:0-21:0",
      "Thursday": "10:0-21:0",
      "Friday": "10:0-21:0",
      "Saturday": "10:0-21:0",
      "Sunday": "11:0-18:0"
    }
  },
  {
    "business_id": "Cwa0hZYFYKYF6Z6wr9QAmg",
    "name": "SEPHORA",
    "address": "512 Legacy Pl",
    "city": "Dedham",
    "state": "MA",
    "postal_code": "02026",
    "latitude": 42.2307846989,
    "longitude": -71.1784334,
    "stars": 3.0,
    "review_count": 38,
    "is_open": 1,
    "attributes": {
      "RestaurantsPriceRange2": "3",
      "BusinessParking": "{'garage': True, 'street': False, 'validated': False, 'lot': False, 'valet': False}",
      "BusinessAcceptsCreditCards": "True",
      "ByAppointmentOnly": "False",
      "BikeParking": "False",
      "RestaurantsTakeOut": "True",
      "RestaurantsDelivery": "False"
    },
    "categories": "Shopping, Cosmetics & Beauty Supply, Beauty & Spas",
    "hours": {
      "Monday": "10:0-21:0",
      "Tuesday": "10:0-21:0",
      "Wednesday": "10:0-21:0",
      "Thursday": "10:0-17:0",
      "Friday": "10:0-19:0",
      "Saturday": "10:0-19:0",
      "Sunday": "12:0-18:0"
    }
  },
  {
    "business_id": "-chMLdIjw9ohL3Wxnq3-cg",
    "name": "SEPHORA",
    "address": "451 E Altamonte Dr, Ste 2223",
    "city": "Altamonte Springs",
    "state": "FL",
    "postal_code": "32701",
    "latitude": 28.6666123,
    "longitude": -81.3774043,
    "stars": 4.5,
    "review_count": 7,
    "is_open": 1,
    "attributes": {
      "BusinessAcceptsCreditCards": "True",
      "RestaurantsPriceRange2": "2",
      "BusinessParking": "{'garage': False, 'street': False, 'validated': False, 'lot': False, 'valet': False}",
      "RestaurantsDelivery": "False",
      "RestaurantsTakeOut": "True"
    },
    "categories": "Shopping, Perfume, Beauty & Spas, Flowers & Gifts, Fashion, Cosmetics & Beauty Supply, Gift Shops, Department Stores",
    "hours": {
      "Monday": "11:0-19:0",
      "Tuesday": "11:0-19:0",
      "Wednesday": "11:0-19:0",
      "Thursday": "10:0-18:0",
      "Friday": "10:0-19:0",
      "Saturday": "11:0-20:0",
      "Sunday": "12:0-18:0"
    }
  },
  {
    "business_id": "3hPGowwPoibjyyB_tu1sGw",
    "name": "SEPHORA",
    "address": "10355 152 Street, Suite# 2040",
    "city": "Surrey",
    "state": "BC",
    "postal_code": "V3R 7C1",
    "latitude": 49.1916083,
    "longitude": -122.8039598,
    "stars": 2.5,
    "review_count": 18,
    "is_open": 1,
    "attributes": {
      "BusinessParking": "{'garage': False, 'street': False, 'validated': False, 'lot': False, 'valet': False}",
      "ByAppointmentOnly": "False",
      "RestaurantsDelivery": "False",
      "RestaurantsTakeOut": "True",
      "RestaurantsPriceRange2": "3"
    },
    "categories": "Shopping, Cosmetics & Beauty Supply, Beauty & Spas",
    "hours": {
      "Monday": "10:0-21:0",
      "Tuesday": "10:0-21:0",
      "Wednesday": "10:0-21:0",
      "Thursday": "10:0-17:0",
      "Friday": "10:0-18:0",
      "Saturday": "10:0-18:0",
      "Sunday": "11:0-17:0"
    }
  },
  {
    "business_id": "ev6F3cX4nI2P56fycg6oAQ",
    "name": "SEPHORA",
    "address": "9329 SW Washington Square Rd, # T07",
    "city": "Portland",
    "state": "OR",
    "postal_code": "97223",
    "latitude": 45.45065,
    "longitude": -122.782373,
    "stars": 3.5,
    "review_count": 92,
    "is_open": 1,
    "attributes": {
      "BusinessAcceptsCreditCards": "True",
      "BusinessParking": "{'garage': False, 'street': False, 'validated': False, 'lot': False, 'valet': False}",
      "RestaurantsPriceRange2": "2",
      "BikeParking": "True",
      "ByAppointmentOnly": "False",
      "RestaurantsTakeOut": "True",
      "RestaurantsDelivery": "False"
    },
    "categories": "Shopping, Beauty & Spas, Cosmetics & Beauty Supply",
    "hours": {
      "Monday": "11:0-19:0",
      "Tuesday": "11:0-19:0",
      "Wednesday": "10:0-20:0",
      "Thursday": "10:0-18:0",
      "Friday": "10:0-18:0",
      "Saturday": "10:0-20:0",
      "Sunday": "11:0-19:0"
    }
  },
  {
    "business_id": "xP5a3Eto2QD0bHdgdnfNOg",
    "name": "SEPHORA",
    "address": "6551 No. 3 Road, Unit# 1525",
    "city": "Richmond",
    "state": "BC",
    "postal_code": "V6Y 2B6",
    "latitude": 49.1660053,
    "longitude": -123.1385914,
    "stars": 3.0,
    "review_count": 35,
    "is_open": 1,
    "attributes": {
      "BusinessParking": "{'garage': False, 'street': False, 'validated': False, 'lot': True, 'valet': False}",
      "BikeParking": "True",
      "RestaurantsPriceRange2": "3",
      "ByAppointmentOnly": "False",
      "RestaurantsDelivery": "False",
      "RestaurantsTakeOut": "True"
    },
    "categories": "Beauty & Spas, Cosmetics & Beauty Supply, Shopping",
    "hours": {
      "Monday": "10:0-21:0",
      "Tuesday": "10:0-21:0",
      "Wednesday": "10:0-21:0",
      "Thursday": "10:0-18:0",
      "Friday": "11:0-19:0",
      "Saturday": "11:0-19:0",
      "Sunday": "11:0-18:0"
    }
  },
  {
    "business_id": "G4YV0KRHbFo1Ir3nrLAXiQ",
    "name": "SEPHORA",
    "address": "1331 Boylston St, Space  125",
    "city": "Boston",
    "state": "MA",
    "postal_code": "02215",
    "latitude": 42.3443301,
    "longitude": -71.0994508,
    "stars": 3.0,
    "review_count": 18,
    "is_open": 1,
    "attributes": {
      "BikeParking": "True",
      "RestaurantsPriceRange2": "2",
      "BusinessParking": "{'garage': False, 'street': False, 'validated': False, 'lot': False, 'valet': False}",
      "BusinessAcceptsCreditCards": "True",
      "ByAppointmentOnly": "False",
      "RestaurantsDelivery": "False",
      "RestaurantsTakeOut": "True"
    },
    "categories": "Accessories, Beauty & Spas, Cosmetics & Beauty Supply, Fashion, Shopping",
    "hours": {
      "Monday": "11:0-18:0",
      "Tuesday": "11:0-18:0",
      "Wednesday": "11:0-18:0",
      "Thursday": "11:0-18:0",
      "Friday": "11:0-18:0",
      "Saturday": "11:0-18:0",
      "Sunday": "12:0-18:0"
    }
  },
  {
    "business_id": "7wjeoTR5f3JNURWuOHRxOQ",
    "name": "Sephora",
    "address": "3115 E Colonial Dr",
    "city": "Orlando",
    "state": "FL",
    "postal_code": "32803",
    "latitude": 28.556861,
    "longitude": -81.341544,
    "stars": 2.0,
    "review_count": 6,
    "is_open": 0,
    "attributes": {
      "BusinessAcceptsCreditCards": "True",
      "RestaurantsPriceRange2": "3",
      "BusinessParking": "{'garage': False, 'street': False, 'validated': False, 'lot': False, 'valet': False}"
    },
    "categories": "Shopping, Gift Shops, Cosmetics & Beauty Supply, Department Stores, Beauty & Spas, Flowers & Gifts, Fashion",
    "hours": {
      "Monday": "10:0-21:0",
      "Tuesday": "10:0-21:0",
      "Wednesday": "10:0-21:0",
      "Thursday": "10:0-21:0",
      "Friday": "10:0-21:0",
      "Saturday": "10:0-21:0",
      "Sunday": "11:0-18:0"
    }
  },
  {
    "business_id": "Uz87KneZAhAsodOG3f7fUQ",
    "name": "SEPHORA",
    "address": "88 Newbury St",
    "city": "Boston",
    "state": "MA",
    "postal_code": "02116",
    "latitude": 42.3513817,
    "longitude": -71.0747892,
    "stars": 3.5,
    "review_count": 25,
    "is_open": 1,
    "attributes": {
      "BusinessParking": "{'garage': False, 'street': False, 'validated': False, 'lot': False, 'valet': False}",
      "BusinessAcceptsCreditCards": "True",
      "RestaurantsPriceRange2": "2",
      "ByAppointmentOnly": "False",
      "BikeParking": "True",
      "RestaurantsTakeOut": "True",
      "RestaurantsDelivery": "False"
    },
    "categories": "Beauty & Spas, Cosmetics & Beauty Supply, Shopping",
    "hours": {
      "Monday": "12:0-18:0",
      "Tuesday": "12:0-18:0",
      "Wednesday": "12:0-18:0",
      "Thursday": "12:0-18:0",
      "Friday": "12:0-17:0",
      "Saturday": "12:0-18:0",
      "Sunday": "12:0-16:0"
    }
  },
  {
    "business_id": "-PQMsUrUCs9h_Dz30nyApw",
    "name": "SEPHORA",
    "address": "250 Granite St, Space 1230",
    "city": "Braintree",
    "state": "MA",
    "postal_code": "02184",
    "latitude": 42.2220924,
    "longitude": -71.024216,
    "stars": 3.0,
    "review_count": 55,
    "is_open": 1,
    "attributes": {
      "ByAppointmentOnly": "False",
      "BikeParking": "False",
      "BusinessParking": "{'garage': True, 'street': False, 'validated': False, 'lot': False, 'valet': False}",
      "RestaurantsPriceRange2": "3",
      "BusinessAcceptsCreditCards": "True",
      "RestaurantsTakeOut": "True",
      "RestaurantsDelivery": "False"
    },
    "categories": "Cosmetics & Beauty Supply, Beauty & Spas, Shopping",
    "hours": {
      "Monday": "10:0-21:0",
      "Tuesday": "10:0-21:0",
      "Wednesday": "10:0-21:0",
      "Thursday": "10:0-18:0",
      "Friday": "10:0-18:0",
      "Saturday": "10:0-21:0",
      "Sunday": "11:0-18:0"
    }
  },
  {
    "business_id": "0lmqrt0Bm06SAriGD9F5UA",
    "name": "SEPHORA",
    "address": "100 Cambridge Side Pl",
    "city": "Cambridge",
    "state": "MA",
    "postal_code": "02141",
    "latitude": 42.3674404,
    "longitude": -71.0765653,
    "stars": 3.0,
    "review_count": 63,
    "is_open": 1,
    "attributes": {
      "BusinessAcceptsCreditCards": "True",
      "RestaurantsPriceRange2": "2",
      "BusinessParking": "{'garage': True, 'street': False, 'validated': False, 'lot': False, 'valet': False}",
      "ByAppointmentOnly": "False",
      "BikeParking": "False",
      "RestaurantsDelivery": "False",
      "RestaurantsTakeOut": "True"
    },
    "categories": "Beauty & Spas, Cosmetics & Beauty Supply, Shopping",
    "hours": {
      "Monday": "11:0-19:0",
      "Tuesday": "11:0-19:0",
      "Wednesday": "11:0-19:0",
      "Thursday": "11:0-18:0",
      "Friday": "11:0-18:0",
      "Saturday": "11:0-20:0",
      "Sunday": "12:0-18:0"
    }
  },
  {
    "business_id": "Kgu_yATyELIGMjI6Bgsiog",
    "name": "Sephora - Austin",
    "address": "2901 Capitol Of Texas Hwy, Ste M02A",
    "city": "Austin",
    "state": "TX",
    "postal_code": "78746",
    "latitude": 30.3276987,
    "longitude": -97.8108268,
    "stars": 3.5,
    "review_count": 92,
    "is_open": 1,
    "attributes": {
      "BusinessAcceptsCreditCards": "True",
      "BikeParking": "False",
      "RestaurantsPriceRange2": "2",
      "ByAppointmentOnly": "False",
      "BusinessParking": "{'garage': False, 'street': False, 'validated': False, 'lot': True, 'valet': False}",
      "DogsAllowed": "False",
      "RestaurantsDelivery": "False",
      "RestaurantsTakeOut": "True"
    },
    "categories": "Shopping, Skin Care, Beauty & Spas, Cosmetics & Beauty Supply",
    "hours": {
      "Monday": "11:0-19:0",
      "Tuesday": "11:0-19:0",
      "Wednesday": "11:0-19:0",
      "Thursday": "11:0-19:0",
      "Friday": "10:0-21:0",
      "Saturday": "10:0-21:0",
      "Sunday": "12:0-18:0"
    }
  },
  {
    "business_id": "d3xfGeBqLd0szF2Wy_OKkg",
    "name": "SEPHORA",
    "address": "451 E Altamonte Dr, Ste 1301, JCPenney",
    "city": "Altamonte Springs",
    "state": "FL",
    "postal_code": "32701",
    "latitude": 28.6668059241,
    "longitude": -81.3759084,
    "stars": 3.0,
    "review_count": 16,
    "is_open": 1,
    "attributes": {
      "BusinessParking": "None",
      "BikeParking": "True",
      "BusinessAcceptsCreditCards": "True",
      "RestaurantsPriceRange2": "3",
      "ByAppointmentOnly": "False"
    },
    "categories": "Makeup Artists, Shopping, Cosmetics & Beauty Supply, Beauty & Spas",
    "hours": {
      "Monday": "10:0-21:0",
      "Tuesday": "10:0-21:0",
      "Wednesday": "10:0-21:0",
      "Thursday": "10:0-21:0",
      "Friday": "10:0-21:0",
      "Saturday": "10:0-21:0",
      "Sunday": "11:0-18:0"
    }
  },
  {
    "business_id": "Si4jQCq8HfJafvP2S2LlZA",
    "name": "SEPHORA",
    "address": "1045 Robson Street",
    "city": "Vancouver",
    "state": "BC",
    "postal_code": "V6Z 2V7",
    "latitude": 49.284164,
    "longitude": -123.123896,
    "stars": 4.0,
    "review_count": 37,
    "is_open": 1,
    "attributes": {
      "ByAppointmentOnly": "False",
      "BikeParking": "True",
      "GoodForKids": "False",
      "BusinessParking": "{'garage': False, 'street': False, 'validated': False, 'lot': True, 'valet': False}",
      "RestaurantsDelivery": "False",
      "RestaurantsTakeOut": "True",
      "RestaurantsPriceRange2": "2"
    },
    "categories": "Beauty & Spas, Makeup Artists, Shopping, Hair Salons, Cosmetics & Beauty Supply",
    "hours": {
      "Monday": "10:0-20:0",
      "Tuesday": "10:0-20:0",
      "Wednesday": "10:0-20:0",
      "Thursday": "10:0-18:0",
      "Friday": "11:0-18:0",
      "Saturday": "10:0-20:0",
      "Sunday": "11:0-19:0"
    }
  },
  {
    "business_id": "yldWCX-PqictF1ed66UDCQ",
    "name": "SEPHORA",
    "address": "210 Andover St",
    "city": "Peabody",
    "state": "MA",
    "postal_code": "01960",
    "latitude": 42.5396335,
    "longitude": -70.943273,
    "stars": 3.5,
    "review_count": 34,
    "is_open": 1,
    "attributes": {
      "BusinessParking": "{'garage': False, 'street': False, 'validated': False, 'lot': True, 'valet': False}",
      "ByAppointmentOnly": "False",
      "BikeParking": "True",
      "BusinessAcceptsCreditCards": "True",
      "RestaurantsPriceRange2": "2",
      "WheelchairAccessible": "True",
      "RestaurantsTakeOut": "True",
      "RestaurantsDelivery": "False"
    },
    "categories": "Beauty & Spas, Shopping, Cosmetics & Beauty Supply",
    "hours": {
      "Monday": "10:0-20:0",
      "Tuesday": "10:0-20:0",
      "Wednesday": "10:0-20:0",
      "Thursday": "10:0-18:0",
      "Friday": "10:0-18:0",
      "Saturday": "10:0-21:0",
      "Sunday": "11:0-18:0"
    }
  },
  {
    "business_id": "2nV35Pv00G1FzF754iY1kg",
    "name": "SEPHORA",
    "address": "1530 E Buena Vista Dr, Space B17-101",
    "city": "Lake Buena Vista",
    "state": "FL",
    "postal_code": "32830",
    "latitude": 28.3698482,
    "longitude": -81.5165583026,
    "stars": 4.5,
    "review_count": 33,
    "is_open": 1,
    "attributes": {
      "BikeParking": "False",
      "ByAppointmentOnly": "False",
      "BusinessAcceptsCreditCards": "True",
      "RestaurantsPriceRange2": "2",
      "RestaurantsDelivery": "False",
      "BusinessParking": "{'garage': False, 'street': False, 'validated': False, 'lot': False, 'valet': False}",
      "RestaurantsTakeOut": "True"
    },
    "categories": "Cosmetics & Beauty Supply, Beauty & Spas, Shopping",
    "hours": {
      "Monday": "11:0-21:0",
      "Tuesday": "11:0-21:0",
      "Wednesday": "11:0-21:0",
      "Thursday": "11:0-21:0",
      "Friday": "11:0-21:0",
      "Saturday": "11:0-22:0",
      "Sunday": "11:0-21:0"
    }
  },
  {
    "business_id": "WcBuqANf5FYX3-rfotknIQ",
    "name": "SEPHORA",
    "address": "3167 Peachtree Rd NE, Space C",
    "city": "Atlanta",
    "state": "GA",
    "postal_code": "30305",
    "latitude": 33.8403009,
    "longitude": -84.3758729,
    "stars": 4.0,
    "review_count": 14,
    "is_open": 1,
    "attributes": {
      "RestaurantsPriceRange2": "2",
      "BusinessParking": "{'garage': False, 'street': False, 'validated': False, 'lot': False, 'valet': False}",
      "RestaurantsTakeOut": "True",
      "BusinessAcceptsCreditCards": "True",
      "ByAppointmentOnly": "False",
      "RestaurantsDelivery": "False"
    },
    "categories": "Beauty & Spas, Cosmetics & Beauty Supply, Shopping",
    "hours": {
      "Monday": "10:0-19:0",
      "Tuesday": "10:0-19:0",
      "Wednesday": "10:0-19:0",
      "Thursday": "10:0-19:0",
      "Friday": "12:0-18:0",
      "Saturday": "10:0-19:0",
      "Sunday": "12:0-18:0"
    }
  },
  {
    "business_id": "y8S7UrYz4_J16OLLg5qGsg",
    "name": "SEPHORA",
    "address": "3393 Peachtree Rd NE, Ste 3042",
    "city": "Atlanta",
    "state": "GA",
    "postal_code": "30326",
    "latitude": 33.846335,
    "longitude": -84.3635778,
    "stars": 3.0,
    "review_count": 88,
    "is_open": 1,
    "attributes": {
      "ByAppointmentOnly": "False",
      "BusinessAcceptsCreditCards": "True",
      "RestaurantsPriceRange2": "2",
      "BikeParking": "False",
      "RestaurantsTakeOut": "True",
      "BusinessParking": "{'garage': True, 'street': False, 'validated': False, 'lot': True, 'valet': False}",
      "RestaurantsDelivery": "False"
    },
    "categories": "Cosmetics & Beauty Supply, Beauty & Spas, Shopping",
    "hours": {
      "Monday": "10:0-21:0",
      "Tuesday": "10:0-21:0",
      "Wednesday": "10:0-21:0",
      "Thursday": "10:0-18:0",
      "Friday": "10:0-18:0",
      "Saturday": "10:0-21:0",
      "Sunday": "11:0-19:0"
    }
  }
]