[
  {
    "business_id": "9evN9znu5OzxtM6GgOBpRA",
    "name": "Ulta Beauty",
    "address": "2430 S Washington Ave, Ste 101",
    "city": "Titusville",
    "state": "FL",
    "postal_code": "32780",
    "latitude": 28.5867114,
    "longitude": -80.8037348,
    "stars": 4.0,
    "review_count": 7,
    "is_open": 1,
    "attributes": {
      "BusinessParking": "{'garage': False, 'street': False, 'validated': False, 'lot': False, 'valet': False}"
    },
    "categories": "Cosmetics & Beauty Supply, Shopping, Skin Care, Beauty & Spas, Hair Salons",
    "hours": {
      "Monday": "10:0-19:0",
      "Tuesday": "10:0-19:0",
      "Wednesday": "10:0-19:0",
      "Thursday": "10:0-19:0",
      "Friday": "10:0-19:0",
      "Saturday": "10:0-19:0",
      "Sunday": "11:0-18:0"
    }
  },
  {
    "business_id": "9DcC4MbJ9egYd1zmsLxhcw",
    "name": "Austin Pulmonary Consultants",
    "address": "3600 W Parmer Ln, Ste 106",
    "city": "Austin",
    "state": "TX",
    "postal_code": "78727",
    "latitude": 30.42436,
    "longitude": -97.7101918,
    "stars": 3.5,
    "review_count": 9,
    "is_open": 1,
    "attributes": {
      "ByAppointmentOnly": "True",
      "BusinessAcceptsCreditCards": "True",
      "AcceptsInsurance": "True"
    },
    "categories": "Health & Medical, Doctors",
    "hours": {
      "Monday": "8:0-17:0",
      "Tuesday": "8:0-17:0",
      "Wednesday": "8:0-17:0",
      "Thursday": "8:0-17:0",
      "Friday": "8:30-15:0"
    }
  },
  {
    "business_id": "x_BE6FFxWUet3MTdgGVpBA",
    "name": "Ulta Beauty",
    "address": "3225 Rolling Oaks Blvd",
    "city": "Kissimmee",
    "state": "FL",
    "postal_code": "34747",
    "latitude": 28.343831,
    "longitude": -81.610681,
    "stars": 3.0,
    "review_count": 12,
    "is_open": 1,
    "attributes": {
      "ByAppointmentOnly": "False",
      "GoodForKids": "True",
      "BusinessAcceptsCreditCards": "True",
      "RestaurantsPriceRange2": "2"
    },
    "categories": "Beauty & Spas, Skin Care, Hair Salons, Cosmetics & Beauty Supply, Shopping",
    "hours": {
      "Monday": "10:0-19:0",
      "Tuesday": "10:0-19:0",
      "Wednesday": "10:0-19:0",
      "Thursday": "10:0-19:0",
      "Friday": "10:0-19:0",
      "Saturday": "10:0-19:0",
      "Sunday": "11:0-18:0"
    }
  },
  {
    "business_id": "hIlZJbyv5JsFyeylwoZFiA",
    "name": "The Sultan Restaurant",
    "address": "1765 Brice Rd",
    "city": "Reynoldsburg",
    "state": "OH",
    "postal_code": "43068",
    "latitude": 39.9433174133,
    "longitude": -82.830291748,
    "stars": 2.5,
    "review_count": 5,
    "is_open": 0,
    "attributes": {
      "WiFi": "u'free'",
      "RestaurantsDelivery": "True",
      "NoiseLevel": "u'average'",
      "RestaurantsReservations": "True",
      "GoodForKids": "True",
      "RestaurantsAttire": "u'casual'",
      "RestaurantsGoodForGroups": "True",
      "Alcohol": "u'none'",
      "Caters": "True",
      "RestaurantsTakeOut": "True",
      "BusinessParking": "{'garage': False, 'street': False, 'validated': False, 'lot': False, 'valet': False}",
      "RestaurantsPriceRange2": "1",
      "BusinessAcceptsCreditCards": "True",
      "Ambience": "{'romantic': False, 'intimate': False, 'touristy': False, 'hipster': False, 'divey': False, 'classy': False, 'trendy': False, 'upscale': False, 'casual': False}",
      "OutdoorSeating": "True"
    },
    "categories": "Restaurants, Mediterranean",
    "hours": {
      "Monday": "11:0-22:0",
      "Tuesday": "11:0-22:0",
      "Wednesday": "11:0-22:0",
      "Thursday": "11:0-22:0",
      "Friday": "11:0-23:0",
      "Saturday": "11:0-23:0",
      "Sunday": "12:0-21:0"
    }
  },
  {
    "business_id": "0UBKd3Tcc4HF7HQcrQsZRg",
    "name": "Lauren Johnston Intuitive Life Coach and Consultant",
    "address": "1514 Parker Ln, Unit 101",
    "city": "Austin",
    "state": "TX",
    "postal_code": "78741",
    "latitude": 30.2407919,
    "longitude": -97.7317405,
    "stars": 5.0,
    "review_count": 30,
    "is_open": 1,
    "attributes": {
      "ByAppointmentOnly": "True",
      "BusinessAcceptsCreditCards": "True"
    },
    "categories": "Hypnosis/Hypnotherapy, Health & Medical, Professional Services, Counseling & Mental Health, Life Coach",
    "hours": {
      "Tuesday": "12:0-19:0",
      "Wednesday": "14:0-19:30",
      "Thursday": "12:0-17:30"
    }
  },
  {
    "business_id": "i-irYF0w0vwNI2U02QKQpw",
    "name": "La Sultana Bakery",
    "address": "40 Maverick Sq",
    "city": "Boston",
    "state": "MA",
    "postal_code": "02128",
    "latitude": 42.370094,
    "longitude": -71.0392141,
    "stars": 4.0,
    "review_count": 54,
    "is_open": 1,
    "attributes": {
      "BusinessAcceptsCreditCards": "True",
      "RestaurantsPriceRange2": "1",
      "BusinessParking": "{'garage': False, 'street': True, 'validated': False, 'lot': False, 'valet': False}",
      "Alcohol": "'none'",
      "OutdoorSeating": "False",
      "RestaurantsGoodForGroups": "True",
      "RestaurantsAttire": "u'casual'",
      "NoiseLevel": "u'average'",
      "RestaurantsTakeOut": "True",
      "Caters": "True",
      "GoodForKids": "True",
      "GoodForMeal": "{'dessert': False, 'latenight': False, 'lunch': False, 'dinner': False, 'brunch': False, 'breakfast': False}",
      "WiFi": "'no'",
      "RestaurantsReservations": "False",
      "BikeParking": "True",
      "Ambience": "{'romantic': False, 'intimate': False, 'classy': False, 'hipster': False, 'divey': False, 'touristy': False, 'trendy': False, 'upscale': False, 'casual': False}",
      "HasTV": "True",
      "RestaurantsDelivery": "True"
    },
    "categories": "Restaurants, Food, Colombian, Bakeries, Latin American",
    "hours": {
      "Monday": "5:0-21:0",
      "Tuesday": "5:0-21:0",
      "Wednesday": "5:0-21:0",
      "Thursday": "5:0-21:0",
      "Friday": "5:0-21:0",
      "Saturday": "5:0-21:0",
      "Sunday": "6:0-21:0"
    }
  },
  {
    "business_id": "2IOheCGC2vPrbbppEDyhoA",
    "name": "EL Sultan",
    "address": "SE 52nd And Se Foster",
    "city": "Portland",
    "state": "OR",
    "postal_code": "97206",
    "latitude": 45.4958362919,
    "longitude": -122.6087465496,
    "stars": 4.0,
    "review_count": 16,
    "is_open": 0,
    "attributes": {
      "NoiseLevel": "u'average'",
      "BikeParking": "True",
      "RestaurantsDelivery": "False",
      "HasTV": "False",
      "BusinessAcceptsCreditCards": "False",
      "Caters": "False",
      "WiFi": "u'no'",
      "OutdoorSeating": "True",
      "Ambience": "{'romantic': False, 'intimate': False, 'touristy': False, 'hipster': False, 'divey': False, 'classy': False, 'trendy': False, 'upscale': False, 'casual': True}",
      "BusinessParking": "{'garage': False, 'street': True, 'validated': False, 'lot': False, 'valet': False}",
      "RestaurantsAttire": "u'casual'",
      "RestaurantsReservations": "False",
      "RestaurantsTakeOut": "True",
      "GoodForKids": "True",
      "RestaurantsGoodForGroups": "True",
      "RestaurantsPriceRange2": "1",
      "Alcohol": "u'none'"
    },
    "categories": "Mediterranean, Food, Restaurants, Food Stands, Mexican",
    "hours": null
  },
  {
    "business_id": "wGxeRIiy6iWA0pQJNvy2kQ",
    "name": "Dell Laser Consultants",
    "address": "901 Mopac Expy S, Ste 350, Barton Oaks Plaza 4",
    "city": "Austin",
    "state": "TX",
    "postal_code": "78746",
    "latitude": 30.26475,
    "longitude": -97.780019,
    "stars": 4.0,
    "review_count": 75,
    "is_open": 1,
    "attributes": {
      "AcceptsInsurance": "True",
      "ByAppointmentOnly": "True",
      "WiFi": "u'free'",
      "BusinessAcceptsCreditCards": "True"
    },
    "categories": "Health & Medical, Ophthalmologists, Laser Eye Surgery/Lasik, Doctors, Optometrists",
    "hours": {
      "Monday": "8:0-17:0",
      "Tuesday": "8:0-17:0",
      "Wednesday": "8:0-17:0",
      "Thursday": "8:0-17:0",
      "Friday": "8:0-17:0"
    }
  },
  {
    "business_id": "CTTr-LIx7KgntfdaOY7cHQ",
    "name": "Ulta Beauty",
    "address": "3203 Daniels Rd",
    "city": "Winter Garden",
    "state": "FL",
    "postal_code": "34787",
    "latitude": 28.5233078,
    "longitude": -81.5850424,
    "stars": 3.0,
    "review_count": 46,
    "is_open": 1,
    "attributes": {
      "ByAppointmentOnly": "True",
      "BikeParking": "True",
      "RestaurantsPriceRange2": "2",
      "BusinessParking": "{'garage': False, 'street': True, 'validated': False, 'lot': False, 'valet': False}",
      "BusinessAcceptsCreditCards": "False",
      "GoodForKids": "False"
    },
    "categories": "Beauty & Spas, Cosmetics & Beauty Supply, Hair Salons, Shopping, Skin Care",
    "hours": {
      "Monday": "10:0-19:0",
      "Tuesday": "10:0-19:0",
      "Wednesday": "10:0-19:0",
      "Thursday": "10:0-19:0",
      "Friday": "10:0-19:0",
      "Saturday": "10:0-19:0",
      "Sunday": "11:0-18:0"
    }
  },
  {
    "business_id": "KdMIDoJd0iII_-NFxqN-6g",
    "name": "Ulta Beauty",
    "address": "15 Mystic View Rd",
    "city": "Everett",
    "state": "MA",
    "postal_code": "02149",
    "latitude": 42.4000507,
    "longitude": -71.0676507,
    "stars": 3.0,
    "review_count": 119,
    "is_open": 1,
    "attributes": {
      "BusinessParking": "{'garage': False, 'street': False, 'validated': False, 'lot': True, 'valet': False}",
      "BusinessAcceptsCreditCards": "True",
      "RestaurantsPriceRange2": "2",
      "ByAppointmentOnly": "False",
      "GoodForKids": "False",
      "BikeParking": "True"
    },
    "categories": "Beauty & Spas, Shopping, Cosmetics & Beauty Supply, Hair Salons, Hair Removal, Waxing, Skin Care",
    "hours": {
      "Monday": "10:0-19:0",
      "Tuesday": "10:0-19:0",
      "Wednesday": "10:0-19:0",
      "Thursday": "10:0-19:0",
      "Friday": "10:0-19:0",
      "Saturday": "10:0-19:0",
      "Sunday": "11:0-18:0"
    }
  },
  {
    "business_id": "giNq-MwI9kveIXFOhtohJg",
    "name": "BryteBridge Nonprofit & Business Consultants ",
    "address": "2151 Consulate Dr, Ste 13",
    "city": "Orlando",
    "state": "FL",
    "postal_code": "32837",
    "latitude": 28.4292203,
    "longitude": -81.4062192,
    "stars": 4.0,
    "review_count": 12,
    "is_open": 1,
    "attributes": null,
    "categories": "Professional Services, Payroll Services, Marketing, Business Consulting, Web Design, Graphic Design, Accountants",
    "hours": {
      "Monday": "0:0-0:0",
      "Tuesday": "9:0-19:0",
      "Wednesday": "9:0-19:0",
      "Thursday": "9:0-19:0",
      "Friday": "9:0-19:0"
    }
  },
  {
    "business_id": "PlUQoPQTCtXeZ7Q9DsIynA",
    "name": "Ulta Beauty",
    "address": "9607 Research Blvd, Ste 600",
    "city": "Austin",
    "state": "TX",
    "postal_code": "78759",
    "latitude": 30.388008,
    "longitude": -97.740992,
    "stars": 2.5,
    "review_count": 160,
    "is_open": 1,
    "attributes": {
      "BusinessAcceptsCreditCards": "True",
      "BusinessParking": "{'garage': False, 'street': False, 'validated': False, 'lot': True, 'valet': False}",
      "BikeParking": "False",
      "RestaurantsPriceRange2": "2",
      "GoodForKids": "False",
      "ByAppointmentOnly": "False",
      "DogsAllowed": "False"
    },
    "categories": "Shopping, Beauty & Spas, Hair Salons, Cosmetics & Beauty Supply, Skin Care",
    "hours": {
      "Monday": "10:0-19:0",
      "Tuesday": "10:0-19:0",
      "Wednesday": "10:0-19:0",
      "Thursday": "10:0-19:0",
      "Friday": "10:0-19:0",
      "Saturday": "10:0-19:0",
      "Sunday": "11:0-18:0"
    }
  },
  {
    "business_id": "8HDBSCspx4EEKz4SmNXUmQ",
    "name": "Ulta Beauty",
    "address": "841 N Alafaya Trl",
    "city": "Orlando",
    "state": "FL",
    "postal_code": "32828",
    "latitude": 28.5568384,
    "longitude": -81.2043296,
    "stars": 3.5,
    "review_count": 83,
    "is_open": 1,
    "attributes": {
      "RestaurantsPriceRange2": "2",
      "BikeParking": "True",
      "BusinessParking": "{'garage': False, 'street': False, 'validated': False, 'lot': True, 'valet': False}",
      "BusinessAcceptsCreditCards": "True",
      "GoodForKids": "False",
      "ByAppointmentOnly": "False"
    },
    "categories": "Shopping, Skin Care, Hair Salons, Cosmetics & Beauty Supply, Beauty & Spas",
    "hours": {
      "Monday": "10:0-19:0",
      "Tuesday": "10:0-19:0",
      "Wednesday": "10:0-19:0",
      "Thursday": "10:0-19:0",
      "Friday": "10:0-19:0",
      "Saturday": "10:0-19:0",
      "Sunday": "11:0-18:0"
    }
  },
  {
    "business_id": "jL2Ll6GZWR1JO960jIgsaA",
    "name": "Indigo Rescue-Animal Rescue Consultation",
    "address": "PO Box 554",
    "city": "Beaverton",
    "state": "OR",
    "postal_code": "97075",
    "latitude": 45.4863306,
    "longitude": -122.8020059,
    "stars": 3.5,
    "review_count": 18,
    "is_open": 1,
    "attributes": null,
    "categories": "Pets, Pet Services",
    "hours": null
  },
  {
    "business_id": "sF5SdJ42ZxJxi0n1-4GhAg",
    "name": "The Sultan Caf\u00e9",
    "address": "1500 NW 18th Ave",
    "city": "Portland",
    "state": "OR",
    "postal_code": "97209",
    "latitude": 45.5338485,
    "longitude": -122.6892105,
    "stars": 4.0,
    "review_count": 94,
    "is_open": 1,
    "attributes": {
      "OutdoorSeating": "True",
      "WiFi": "u'free'",
      "Caters": "True",
      "RestaurantsPriceRange2": "1",
      "NoiseLevel": "u'average'",
      "BusinessAcceptsCreditCards": "True",
      "RestaurantsGoodForGroups": "True",
      "RestaurantsAttire": "u'casual'",
      "BikeParking": "True",
      "Ambience": "{'romantic': False, 'intimate': False, 'touristy': False, 'hipster': False, 'divey': False, 'classy': False, 'trendy': False, 'upscale': False, 'casual': True}",
      "BusinessParking": "{'garage': False, 'street': True, 'validated': False, 'lot': False, 'valet': False}",
      "Alcohol": "u'full_bar'",
      "RestaurantsTakeOut": "True",
      "HasTV": "True",
      "GoodForKids": "True",
      "GoodForMeal": "{'dessert': False, 'latenight': False, 'lunch': True, 'dinner': False, 'brunch': False, 'breakfast': False}",
      "RestaurantsDelivery": "True",
      "RestaurantsReservations": "False"
    },
    "categories": "Mediterranean, Lebanese, Cafes, Middle Eastern, Bars, Restaurants, Food, Hookah Bars, Nightlife, Coffee & Tea",
    "hours": {
      "Monday": "7:0-18:0",
      "Tuesday": "7:0-18:0",
      "Wednesday": "7:0-18:0",
      "Thursday": "7:0-18:0",
      "Friday": "7:0-18:0",
      "Saturday": "11:0-16:0"
    }
  },
  {
    "business_id": "Rl01cQie4KFxeUOgn86_Aw",
    "name": "Central Florida Endocrine and Diabetes Consultants, PA",
    "address": "635 N Maitland Ave",
    "city": "Maitland",
    "state": "FL",
    "postal_code": "32751",
    "latitude": 28.6327398,
    "longitude": -81.3660166,
    "stars": 2.5,
    "review_count": 19,
    "is_open": 1,
    "attributes": {
      "BusinessAcceptsCreditCards": "True",
      "ByAppointmentOnly": "True"
    },
    "categories": "Health & Medical, Doctors, Endocrinologists, Laboratory Testing, Diagnostic Services",
    "hours": {
      "Monday": "7:0-17:0",
      "Tuesday": "7:0-17:0",
      "Wednesday": "7:0-17:0",
      "Thursday": "7:0-17:0",
      "Friday": "7:0-14:0"
    }
  },
  {
    "business_id": "NPKs29SJffchN6dzkMYJAQ",
    "name": "Ulta Cosmetics & Salon",
    "address": "1718 W Sand Lake Rd",
    "city": "Orlando",
    "state": "FL",
    "postal_code": "32885",
    "latitude": 28.449074,
    "longitude": -81.4022095,
    "stars": 3.5,
    "review_count": 7,
    "is_open": 0,
    "attributes": {
      "BusinessAcceptsCreditCards": "True",
      "BikeParking": "True",
      "ByAppointmentOnly": "False",
      "RestaurantsPriceRange2": "2",
      "BusinessParking": "{'garage': False, 'street': False, 'validated': False, 'lot': True, 'valet': False}"
    },
    "categories": "Cosmetics & Beauty Supply, Shopping, Beauty & Spas",
    "hours": {
      "Monday": "10:0-21:0",
      "Tuesday": "10:0-18:0",
      "Wednesday": "9:0-18:0",
      "Thursday": "10:0-21:0",
      "Friday": "10:0-21:0",
      "Saturday": "10:0-21:0",
      "Sunday": "10:0-18:0"
    }
  },
  {
    "business_id": "D00iK-vErcD7OBVGO4-pVQ",
    "name": "Executive Security Consultants",
    "address": "5123 Norwich St, Ste 130",
    "city": "Hilliard",
    "state": "OH",
    "postal_code": "43026",
    "latitude": 40.030968,
    "longitude": -83.154006,
    "stars": 4.0,
    "review_count": 5,
    "is_open": 1,
    "attributes": {
      "BusinessAcceptsCreditCards": "True",
      "BusinessAcceptsBitcoin": "False",
      "ByAppointmentOnly": "True"
    },
    "categories": "Professional Services, Security Systems, Home Services",
    "hours": {
      "Monday": "0:0-0:0",
      "Tuesday": "0:0-0:0",
      "Wednesday": "0:0-0:0",
      "Thursday": "0:0-0:0",
      "Friday": "0:0-0:0",
      "Saturday": "0:0-0:0",
      "Sunday": "0:0-0:0"
    }
  },
  {
    "business_id": "mXyoij8uM3mnLBTN1MWYWA",
    "name": "Ulta Beauty",
    "address": "1181 Posner Blvd",
    "city": "Davenport",
    "state": "FL",
    "postal_code": "33837",
    "latitude": 28.2242867025,
    "longitude": -81.6445172192,
    "stars": 3.5,
    "review_count": 11,
    "is_open": 1,
    "attributes": null,
    "categories": "Shopping, Hair Salons, Skin Care, Beauty & Spas, Cosmetics & Beauty Supply",
    "hours": {
      "Monday": "10:0-19:0",
      "Tuesday": "10:0-19:0",
      "Wednesday": "10:0-19:0",
      "Thursday": "10:0-19:0",
      "Friday": "10:0-19:0",
      "Saturday": "10:0-19:0",
      "Sunday": "11:0-18:0"
    }
  },
  {
    "business_id": "Lim422Fay4wvh3C-iVhhDQ",
    "name": "Ulta",
    "address": "4737 Ashford Dunwoody Rd",
    "city": "Dunwoody",
    "state": "GA",
    "postal_code": "30338",
    "latitude": 33.9338431,
    "longitude": -84.3376231,
    "stars": 2.5,
    "review_count": 26,
    "is_open": 0,
    "attributes": {
      "RestaurantsPriceRange2": "2",
      "BusinessAcceptsCreditCards": "True",
      "GoodForKids": "False",
      "BikeParking": "True",
      "ByAppointmentOnly": "False",
      "BusinessParking": "{'garage': False, 'street': False, 'validated': False, 'lot': True, 'valet': False}"
    },
    "categories": "Shopping, Hair Salons, Cosmetics & Beauty Supply, Beauty & Spas",
    "hours": {
      "Monday": "10:0-21:0",
      "Tuesday": "10:0-21:0",
      "Wednesday": "10:0-21:0",
      "Thursday": "10:0-21:0",
      "Friday": "10:0-21:0",
      "Saturday": "10:0-21:0",
      "Sunday": "11:0-18:0"
    }
  },
  {
    "business_id": "1I5tx9kP-FHDnTHuAj7vow",
    "name": "Ulta Beauty",
    "address": "210 Andover St",
    "city": "Peabody",
    "state": "MA",
    "postal_code": "01960",
    "latitude": 42.539067,
    "longitude": -70.948238,
    "stars": 3.0,
    "review_count": 49,
    "is_open": 1,
    "attributes": {
      "BusinessParking": "{'garage': False, 'street': False, 'validated': False, 'lot': True, 'valet': False}",
      "GoodForKids": "False",
      "RestaurantsPriceRange2": "2",
      "BikeParking": "False",
      "ByAppointmentOnly": "False",
      "BusinessAcceptsCreditCards": "True"
    },
    "categories": "Beauty & Spas, Shopping, Cosmetics & Beauty Supply, Hair Salons, Skin Care",
    "hours": {
      "Monday": "10:0-19:0",
      "Tuesday": "10:0-19:0",
      "Wednesday": "10:0-19:0",
      "Thursday": "10:0-19:0",
      "Friday": "10:0-19:0",
      "Saturday": "10:0-19:0",
      "Sunday": "11:0-18:0"
    }
  },
  {
    "business_id": "lIDp9WnMYjlbOXh3dnC19w",
    "name": "Balcones Pain Consultants",
    "address": "5200-B Davis Ln, Ste 200",
    "city": "Austin",
    "state": "TX",
    "postal_code": "78749",
    "latitude": 30.2090287,
    "longitude": -97.8622041,
    "stars": 3.0,
    "review_count": 41,
    "is_open": 1,
    "attributes": {
      "ByAppointmentOnly": "True",
      "BusinessAcceptsCreditCards": "True"
    },
    "categories": "Massage, Medical Centers, Health & Medical, Doctors, Beauty & Spas",
    "hours": {
      "Monday": "0:0-0:0",
      "Tuesday": "8:0-17:0",
      "Wednesday": "8:0-17:0",
      "Thursday": "8:0-17:0",
      "Friday": "8:0-17:0"
    }
  },
  {
    "business_id": "eCbVpkgo6l4N43rFeTGXIw",
    "name": "Lactation Consultants of Atlanta",
    "address": "2141 Kingston Ct SE, Ste 103",
    "city": "Marietta",
    "state": "GA",
    "postal_code": "30067",
    "latitude": 33.924493,
    "longitude": -84.489975,
    "stars": 3.5,
    "review_count": 8,
    "is_open": 1,
    "attributes": {
      "ByAppointmentOnly": "True",
      "BikeParking": "True",
      "WiFi": "u'free'",
      "BusinessParking": "{'garage': False, 'street': False, 'validated': False, 'lot': True, 'valet': False}",
      "BusinessAcceptsCreditCards": "True",
      "AcceptsInsurance": "True"
    },
    "categories": "Baby Gear & Furniture, Lactation Services, Health & Medical, Medical Supplies, Education, Medical Centers, Parenting Classes, Shopping, Specialty Schools",
    "hours": {
      "Monday": "9:0-17:0",
      "Tuesday": "9:0-17:0",
      "Wednesday": "9:0-17:0",
      "Thursday": "9:0-17:0",
      "Friday": "9:0-17:0"
    }
  },
  {
    "business_id": "7p6pIV2NkXSvLKdmzx7ZLw",
    "name": "Sultan's Lebanese Restaurant",
    "address": "5920 Roswell Rd",
    "city": "Sandy Springs",
    "state": "GA",
    "postal_code": "30328",
    "latitude": 33.9162402,
    "longitude": -84.3792248,
    "stars": 3.5,
    "review_count": 32,
    "is_open": 0,
    "attributes": {
      "RestaurantsTakeOut": "True",
      "OutdoorSeating": "True",
      "RestaurantsAttire": "u'casual'",
      "RestaurantsPriceRange2": "2",
      "GoodForKids": "True",
      "BusinessParking": "{'garage': False, 'street': False, 'validated': False, 'lot': True, 'valet': False}",
      "NoiseLevel": "u'quiet'",
      "HasTV": "True",
      "Ambience": "{'romantic': False, 'intimate': False, 'touristy': False, 'hipster': False, 'divey': False, 'classy': False, 'trendy': False, 'upscale': False, 'casual': False}",
      "Alcohol": "u'beer_and_wine'",
      "RestaurantsDelivery": "False",
      "BusinessAcceptsCreditCards": "True",
      "RestaurantsGoodForGroups": "True"
    },
    "categories": "Food, Ethnic Food, Restaurants, Middle Eastern, Specialty Food",
    "hours": {
      "Monday": "18:0-22:0",
      "Tuesday": "18:0-22:0",
      "Wednesday": "18:0-22:0",
      "Thursday": "18:0-22:0",
      "Friday": "18:0-22:30",
      "Saturday": "17:0-22:30",
      "Sunday": "18:0-22:0"
    }
  },
  {
    "business_id": "pP04VC4-htheRGvfDOv-kA",
    "name": "Urology Consultants of the North Shore",
    "address": "400 Highland Ave",
    "city": "Salem",
    "state": "MA",
    "postal_code": "01970",
    "latitude": 42.4959643,
    "longitude": -70.9341533,
    "stars": 2.0,
    "review_count": 5,
    "is_open": 1,
    "attributes": {
      "ByAppointmentOnly": "True"
    },
    "categories": "Urologists, Health & Medical, Doctors",
    "hours": null
  },
  {
    "business_id": "wi3BeUK4jqIFSs5Gn5qQpw",
    "name": "Ulta Beauty",
    "address": "1768 Hilliard Rome Rd",
    "city": "Hilliard",
    "state": "OH",
    "postal_code": "43026",
    "latitude": 39.9877104,
    "longitude": -83.1487715,
    "stars": 3.0,
    "review_count": 5,
    "is_open": 1,
    "attributes": {
      "BusinessParking": "{'garage': False, 'street': False, 'validated': False, 'lot': False, 'valet': False}"
    },
    "categories": "Cosmetics & Beauty Supply, Shopping, Beauty & Spas, Hair Salons, Skin Care",
    "hours": {
      "Monday": "10:0-21:0",
      "Tuesday": "10:0-21:0",
      "Wednesday": "10:0-21:0",
      "Thursday": "10:0-21:0",
      "Friday": "10:0-21:0",
      "Saturday": "10:0-21:0",
      "Sunday": "11:0-18:0"
    }
  },
  {
    "business_id": "tvZKPah2u9G9dFBg5GT0eg",
    "name": "Tri-Value Consultants",
    "address": "993 Summer St",
    "city": "Lynnfield",
    "state": "MA",
    "postal_code": "01940",
    "latitude": 42.5182459,
    "longitude": -71.015302,
    "stars": 5.0,
    "review_count": 19,
    "is_open": 1,
    "attributes": {
      "ByAppointmentOnly": "True",
      "BusinessAcceptsCreditCards": "False",
      "BusinessAcceptsBitcoin": "False"
    },
    "categories": "Home Inspectors, Home Services",
    "hours": {
      "Monday": "0:0-0:0",
      "Tuesday": "0:0-0:0",
      "Wednesday": "0:0-0:0",
      "Thursday": "0:0-0:0",
      "Friday": "0:0-0:0",
      "Saturday": "0:0-0:0",
      "Sunday": "0:0-0:0"
    }
  },
  {
    "business_id": "cKGGxYrJPukhvyzP_ErCYQ",
    "name": "OHSU Fertility Consultants",
    "address": "3303 SW Bond Ave",
    "city": "Portland",
    "state": "OR",
    "postal_code": "97239",
    "latitude": 45.498778,
    "longitude": -122.671084,
    "stars": 3.0,
    "review_count": 18,
    "is_open": 1,
    "attributes": {
      "ByAppointmentOnly": "True",
      "AcceptsInsurance": "True"
    },
    "categories": "Fertility, Medical Centers, Doctors, Health & Medical",
    "hours": null
  },
  {
    "business_id": "Ja1M8VECtR5Y3OjwHqISvw",
    "name": "Sultan's Kitchen",
    "address": "116 State St",
    "city": "Boston",
    "state": "MA",
    "postal_code": "02109",
    "latitude": 42.3592763,
    "longitude": -71.0547639,
    "stars": 4.0,
    "review_count": 157,
    "is_open": 0,
    "attributes": {
      "BusinessParking": "{'garage': False, 'street': True, 'validated': False, 'lot': False, 'valet': False}",
      "RestaurantsReservations": "False",
      "RestaurantsGoodForGroups": "False",
      "OutdoorSeating": "False",
      "BusinessAcceptsCreditCards": "True",
      "Alcohol": "u'none'",
      "RestaurantsAttire": "'casual'",
      "NoiseLevel": "u'average'",
      "RestaurantsTakeOut": "True",
      "RestaurantsDelivery": "False",
      "GoodForKids": "True",
      "BikeParking": "True",
      "WiFi": "u'no'",
      "Caters": "True",
      "Ambience": "{'romantic': False, 'intimate': False, 'touristy': False, 'hipster': False, 'divey': False, 'classy': False, 'trendy': False, 'upscale': False, 'casual': True}",
      "RestaurantsPriceRange2": "2",
      "HasTV": "False",
      "GoodForMeal": "{'dessert': False, 'latenight': False, 'lunch': True, 'dinner': False, 'brunch': False, 'breakfast': False}",
      "RestaurantsTableService": "False"
    },
    "categories": "Chicken Shop, Vegan, Middle Eastern, Turkish, Restaurants",
    "hours": {
      "Monday": "11:0-21:0",
      "Tuesday": "11:0-21:0",
      "Wednesday": "11:0-21:0",
      "Thursday": "11:0-21:0",
      "Friday": "11:0-21:0",
      "Saturday": "11:0-16:0"
    }
  },
  {
    "business_id": "UIbfR8ixuYCpozP1fpTs1Q",
    "name": "Sultan's Kitchen",
    "address": "SW 4th Ave & College St",
    "city": "Portland",
    "state": "OR",
    "postal_code": "97201",
    "latitude": 45.5094005455,
    "longitude": -122.6815902712,
    "stars": 4.5,
    "review_count": 84,
    "is_open": 0,
    "attributes": {
      "OutdoorSeating": "True",
      "RestaurantsDelivery": "False",
      "RestaurantsAttire": "u'casual'",
      "RestaurantsReservations": "False",
      "RestaurantsTakeOut": "True",
      "NoiseLevel": "u'average'",
      "BusinessAcceptsCreditCards": "True",
      "HasTV": "False",
      "RestaurantsGoodForGroups": "True",
      "GoodForKids": "True",
      "Ambience": "{'romantic': False, 'intimate': False, 'touristy': False, 'hipster': False, 'divey': False, 'classy': False, 'trendy': False, 'upscale': False, 'casual': True}",
      "Alcohol": "u'none'",
      "RestaurantsPriceRange2": "1",
      "Caters": "True",
      "WiFi": "u'no'",
      "BusinessParking": "{'garage': False, 'street': True, 'validated': False, 'lot': False, 'valet': False}",
      "BikeParking": "True",
      "GoodForMeal": "{'dessert': False, 'latenight': False, 'lunch': True, 'dinner': False, 'brunch': False, 'breakfast': False}"
    },
    "categories": "Middle Eastern, Restaurants, Turkish, Event Planning & Services, Fast Food, Caterers, Food Stands",
    "hours": {
      "Monday": "9:0-22:0",
      "Tuesday": "9:0-22:0",
      "Wednesday": "9:0-22:0",
      "Thursday": "9:0-22:0",
      "Friday": "9:0-1:0",
      "Saturday": "9:0-1:0",
      "Sunday": "9:0-22:0"
    }
  },
  {
    "business_id": "0LxcGX8NriWJhYXtpJUS2Q",
    "name": "Pain Consultants of Atlanta",
    "address": "2001 Peachtree Rd NE, Ste 200",
    "city": "Atlanta",
    "state": "GA",
    "postal_code": "30309",
    "latitude": 33.808857,
    "longitude": -84.393008,
    "stars": 2.0,
    "review_count": 6,
    "is_open": 1,
    "attributes": null,
    "categories": "Health & Medical",
    "hours": null
  },
  {
    "business_id": "-ya8D3dUj_3oAdUVjcGITg",
    "name": "Ulta Beauty",
    "address": "16521 SE Mill Plain Blvd",
    "city": "Vancouver",
    "state": "WA",
    "postal_code": "98684",
    "latitude": 45.614865,
    "longitude": -122.501521,
    "stars": 3.0,
    "review_count": 53,
    "is_open": 1,
    "attributes": {
      "BikeParking": "False",
      "ByAppointmentOnly": "False",
      "RestaurantsPriceRange2": "2",
      "BusinessParking": "{'garage': False, 'street': False, 'validated': False, 'lot': True, 'valet': False}",
      "GoodForKids": "False",
      "BusinessAcceptsCreditCards": "True"
    },
    "categories": "Hair Salons, Shopping, Beauty & Spas, Skin Care, Cosmetics & Beauty Supply",
    "hours": {
      "Monday": "10:0-19:0",
      "Tuesday": "10:0-19:0",
      "Wednesday": "10:0-19:0",
      "Thursday": "10:0-18:0",
      "Friday": "10:0-18:0",
      "Saturday": "10:0-19:0",
      "Sunday": "11:0-19:0"
    }
  },
  {
    "business_id": "JbUSX_VM7CRtVn779c2A0g",
    "name": "Ulta Beauty",
    "address": "1751 Wp Ball Blvd",
    "city": "Sanford",
    "state": "FL",
    "postal_code": "32771",
    "latitude": 28.7987887,
    "longitude": -81.3334269,
    "stars": 2.5,
    "review_count": 22,
    "is_open": 1,
    "attributes": {
      "GoodForKids": "False",
      "BusinessAcceptsCreditCards": "True",
      "RestaurantsPriceRange2": "2",
      "BusinessParking": "{'garage': False, 'street': False, 'validated': False, 'lot': True, 'valet': False}",
      "BikeParking": "True",
      "ByAppointmentOnly": "False"
    },
    "categories": "Beauty & Spas, Cosmetics & Beauty Supply, Skin Care, Hair Salons, Shopping",
    "hours": {
      "Monday": "10:0-19:0",
      "Tuesday": "10:0-19:0",
      "Wednesday": "10:0-19:0",
      "Thursday": "10:0-19:0",
      "Friday": "10:0-19:0",
      "Saturday": "10:0-19:0",
      "Sunday": "11:0-18:0"
    }
  },
  {
    "business_id": "x2-Ndd-JanynbcVvaLXQGQ",
    "name": "Ophthalmic Consultants of Boston",
    "address": "52 2nd Ave, Ste 2500",
    "city": "Waltham",
    "state": "MA",
    "postal_code": "02451",
    "latitude": 42.3954321,
    "longitude": -71.2637302,
    "stars": 3.5,
    "review_count": 14,
    "is_open": 1,
    "attributes": {
      "ByAppointmentOnly": "True",
      "BusinessAcceptsCreditCards": "True"
    },
    "categories": "Medical Centers, Optometrists, Neuropathologists, Health & Medical, Doctors, Ophthalmologists, Surgeons, Laser Eye Surgery/Lasik",
    "hours": {
      "Monday": "7:30-17:0",
      "Tuesday": "7:30-17:0",
      "Wednesday": "7:30-17:0",
      "Thursday": "7:30-17:0",
      "Friday": "7:30-17:0"
    }
  },
  {
    "business_id": "ti0MRQSZ4DZ8tS_XRak99Q",
    "name": "Pulmonary & Critical Care Consultants of Austin Llp",
    "address": "1305 W 34th St, Ste 400",
    "city": "Austin",
    "state": "TX",
    "postal_code": "78705",
    "latitude": 30.3037449,
    "longitude": -97.7479089,
    "stars": 2.5,
    "review_count": 10,
    "is_open": 1,
    "attributes": {
      "ByAppointmentOnly": "True",
      "BusinessAcceptsCreditCards": "True"
    },
    "categories": "Doctors, Health & Medical",
    "hours": null
  },
  {
    "business_id": "EVUkuGT-UUm0qHC91HVvew",
    "name": "Ulta Beauty",
    "address": "8700 NE Vancouver Mall Dr",
    "city": "Vancouver",
    "state": "WA",
    "postal_code": "98662",
    "latitude": 45.6148835282,
    "longitude": -122.5013752856,
    "stars": 2.5,
    "review_count": 32,
    "is_open": 1,
    "attributes": {
      "BusinessAcceptsCreditCards": "True",
      "RestaurantsPriceRange2": "2",
      "DogsAllowed": "True",
      "GoodForKids": "False",
      "ByAppointmentOnly": "False",
      "BusinessParking": "None"
    },
    "categories": "Shopping, Hair Salons, Cosmetics & Beauty Supply, Beauty & Spas",
    "hours": {
      "Monday": "10:0-20:0",
      "Tuesday": "10:0-20:0",
      "Wednesday": "10:0-20:0",
      "Thursday": "10:0-18:0",
      "Friday": "10:0-19:0",
      "Saturday": "10:0-20:0",
      "Sunday": "11:0-19:0"
    }
  },
  {
    "business_id": "m1Zm6NkLOahrqUa3EH7YIg",
    "name": "Texas Mold Consultants",
    "address": "10018 Wild Dunes Dr",
    "city": "Austin",
    "state": "TX",
    "postal_code": "78747",
    "latitude": 30.1490501,
    "longitude": -97.7788982,
    "stars": 4.0,
    "review_count": 13,
    "is_open": 1,
    "attributes": {
      "BusinessAcceptsCreditCards": "True",
      "ByAppointmentOnly": "True"
    },
    "categories": "Contractors, Damage Restoration, Home Services, Professional Services, Home Health Care, Home Inspectors, Health & Medical",
    "hours": {
      "Monday": "8:0-18:0",
      "Tuesday": "8:0-18:0",
      "Wednesday": "8:0-18:0",
      "Thursday": "8:0-18:0",
      "Friday": "8:0-18:0"
    }
  },
  {
    "business_id": "JrM2NLn70y7AuFvl9xqTug",
    "name": "Ulta Beauty",
    "address": "7699 W Sand Lake Rd",
    "city": "Orlando",
    "state": "FL",
    "postal_code": "32819",
    "latitude": 28.450455,
    "longitude": -81.49097,
    "stars": 4.5,
    "review_count": 37,
    "is_open": 1,
    "attributes": {
      "BusinessParking": "{'garage': False, 'street': False, 'validated': False, 'lot': False, 'valet': False}"
    },
    "categories": "Cosmetics & Beauty Supply, Shopping, Beauty & Spas, Hair Salons, Skin Care",
    "hours": {
      "Monday": "10:0-19:0",
      "Tuesday": "10:0-19:0",
      "Wednesday": "10:0-19:0",
      "Thursday": "10:0-19:0",
      "Friday": "10:0-19:0",
      "Saturday": "10:0-19:0",
      "Sunday": "11:0-18:0"
    }
  },
  {
    "business_id": "QNPE1B9K-QYGJa-y1hnNlw",
    "name": "Ulta Beauty",
    "address": "2609 W Osceola Pkwy",
    "city": "Kissimmee",
    "state": "FL",
    "postal_code": "34741",
    "latitude": 28.344325,
    "longitude": -81.427053,
    "stars": 2.5,
    "review_count": 62,
    "is_open": 1,
    "attributes": {
      "RestaurantsPriceRange2": "2",
      "BikeParking": "True",
      "BusinessAcceptsCreditCards": "False",
      "GoodForKids": "False",
      "BusinessParking": "{'garage': False, 'street': False, 'validated': False, 'lot': True, 'valet': False}",
      "ByAppointmentOnly": "False"
    },
    "categories": "Shopping, Hair Salons, Beauty & Spas, Skin Care, Cosmetics & Beauty Supply",
    "hours": {
      "Monday": "10:0-19:0",
      "Tuesday": "10:0-19:0",
      "Wednesday": "10:0-19:0",
      "Thursday": "10:0-19:0",
      "Friday": "10:0-19:0",
      "Saturday": "10:0-19:0",
      "Sunday": "11:0-18:0"
    }
  },
  {
    "business_id": "X_L1rAJQqAX5tWYXcDhF4g",
    "name": "Ulta Beauty",
    "address": "380 Grossman Dr",
    "city": "Braintree",
    "state": "MA",
    "postal_code": "02184",
    "latitude": 42.214353,
    "longitude": -70.998977,
    "stars": 3.5,
    "review_count": 79,
    "is_open": 1,
    "attributes": {
      "BusinessParking": "{'garage': False, 'street': False, 'validated': False, 'lot': True, 'valet': False}",
      "ByAppointmentOnly": "False",
      "RestaurantsPriceRange2": "2",
      "BusinessAcceptsCreditCards": "True",
      "BikeParking": "True"
    },
    "categories": "Cosmetics & Beauty Supply, Beauty & Spas, Shopping, Hair Salons, Skin Care",
    "hours": {
      "Monday": "10:0-19:0",
      "Tuesday": "10:0-19:0",
      "Wednesday": "10:0-19:0",
      "Thursday": "10:0-19:0",
      "Friday": "10:0-19:0",
      "Saturday": "10:0-19:0",
      "Sunday": "11:0-18:0"
    }
  },
  {
    "business_id": "C3ZmQJr8EXJTCrMxtRle2w",
    "name": "Georgia Perinatal Consultants",
    "address": "77 Collier Rd NW, Ste 3130",
    "city": "Atlanta",
    "state": "GA",
    "postal_code": "30309",
    "latitude": 33.8087549,
    "longitude": -84.395555,
    "stars": 3.0,
    "review_count": 24,
    "is_open": 1,
    "attributes": {
      "ByAppointmentOnly": "True"
    },
    "categories": "Health & Medical, Doctors, Obstetricians & Gynecologists",
    "hours": null
  },
  {
    "business_id": "iOGSQQlIiwMH6VuZB9U9Og",
    "name": "Ulta Beauty",
    "address": "11040 NE Evergreen Pkwy",
    "city": "Beaverton",
    "state": "OR",
    "postal_code": "97006",
    "latitude": 45.535793,
    "longitude": -122.865406,
    "stars": 2.5,
    "review_count": 104,
    "is_open": 1,
    "attributes": {
      "BusinessParking": "{'garage': False, 'street': False, 'validated': False, 'lot': True, 'valet': False}",
      "RestaurantsPriceRange2": "2",
      "GoodForKids": "False",
      "BusinessAcceptsCreditCards": "False",
      "BikeParking": "True",
      "ByAppointmentOnly": "False"
    },
    "categories": "Hair Salons, Cosmetics & Beauty Supply, Beauty & Spas, Shopping, Skin Care",
    "hours": {
      "Monday": "10:0-19:0",
      "Tuesday": "10:0-19:0",
      "Wednesday": "10:0-19:0",
      "Thursday": "10:0-19:0",
      "Friday": "10:0-19:0",
      "Saturday": "10:0-19:0",
      "Sunday": "11:0-18:0"
    }
  },
  {
    "business_id": "KXp_EvxQqUeEhsAT7jFqeg",
    "name": "Audiological Consultants of Atlanta",
    "address": "2140 Peachtree Rd NW, Ste 350",
    "city": "Atlanta",
    "state": "GA",
    "postal_code": "30309",
    "latitude": 33.813431,
    "longitude": -84.393785,
    "stars": 4.5,
    "review_count": 6,
    "is_open": 1,
    "attributes": {
      "BusinessAcceptsCreditCards": "True",
      "ByAppointmentOnly": "True"
    },
    "categories": "Hearing Aid Providers, Audiologist, Health & Medical, Doctors",
    "hours": {
      "Monday": "8:30-17:0",
      "Tuesday": "8:30-17:0",
      "Wednesday": "8:30-17:0",
      "Thursday": "8:30-17:0",
      "Friday": "8:30-17:0"
    }
  },
  {
    "business_id": "x4WJQUsWPuvMztHWOcsZkg",
    "name": "Sultan Hookah Lounge",
    "address": "12436 SE Powell Blvd",
    "city": "Portland",
    "state": "OR",
    "postal_code": "97236",
    "latitude": 45.4969602,
    "longitude": -122.5349333,
    "stars": 3.0,
    "review_count": 17,
    "is_open": 0,
    "attributes": {
      "BusinessParking": "{'garage': False, 'street': False, 'validated': False, 'lot': True, 'valet': False}",
      "Alcohol": "u'none'",
      "RestaurantsGoodForGroups": "True",
      "RestaurantsPriceRange2": "2",
      "BikeParking": "True",
      "GoodForKids": "False",
      "OutdoorSeating": "True",
      "NoiseLevel": "u'average'",
      "HasTV": "True",
      "Ambience": "{'touristy': False, 'hipster': False, 'romantic': False, 'divey': False, 'intimate': False, 'trendy': False, 'upscale': False, 'classy': True, 'casual': True}",
      "BusinessAcceptsCreditCards": "True"
    },
    "categories": "Nightlife, Lounges, Local Flavor, Bars, Hookah Bars",
    "hours": {
      "Monday": "12:30-1:0",
      "Tuesday": "12:30-1:0",
      "Wednesday": "12:30-1:0",
      "Thursday": "12:30-1:0",
      "Friday": "12:30-3:0",
      "Saturday": "12:30-3:0"
    }
  },
  {
    "business_id": "3L0qhi492FU767rRJx7trA",
    "name": "Ulta Beauty",
    "address": "4048 Eastgate Dr",
    "city": "Orlando",
    "state": "FL",
    "postal_code": "32839",
    "latitude": 28.4846911,
    "longitude": -81.427171,
    "stars": 3.5,
    "review_count": 49,
    "is_open": 1,
    "attributes": {
      "BusinessParking": "{'garage': False, 'street': True, 'validated': False, 'lot': False, 'valet': False}",
      "ByAppointmentOnly": "False",
      "BikeParking": "False",
      "RestaurantsPriceRange2": "2",
      "GoodForKids": "False",
      "BusinessAcceptsCreditCards": "True",
      "DogsAllowed": "False"
    },
    "categories": "Beauty & Spas, Cosmetics & Beauty Supply, Skin Care, Hair Salons, Shopping",
    "hours": {
      "Monday": "10:0-19:0",
      "Tuesday": "10:0-19:0",
      "Wednesday": "10:0-19:0",
      "Thursday": "10:0-19:0",
      "Friday": "10:0-19:0",
      "Saturday": "10:0-19:0",
      "Sunday": "11:0-18:0"
    }
  },
  {
    "business_id": "mV1fXaRQDszBjSNw3eZHTQ",
    "name": "Ophthalmic Consultants of Boston",
    "address": "50 Staniford St, Ste 600",
    "city": "Boston",
    "state": "MA",
    "postal_code": "02114",
    "latitude": 42.3625378,
    "longitude": -71.064773,
    "stars": 3.0,
    "review_count": 48,
    "is_open": 1,
    "attributes": {
      "BusinessAcceptsCreditCards": "True",
      "ByAppointmentOnly": "True"
    },
    "categories": "Ophthalmologists, Optometrists, Surgeons, Laser Eye Surgery/Lasik, Doctors, Health & Medical",
    "hours": {
      "Monday": "7:30-17:0",
      "Tuesday": "7:30-17:0",
      "Wednesday": "7:30-17:0",
      "Thursday": "7:30-17:0",
      "Friday": "7:30-17:0"
    }
  },
  {
    "business_id": "ssAU0OEjRIGdznDoFqciVQ",
    "name": "Ulta Beauty",
    "address": "10701 Blacklick Eastern Rd, Ste 300",
    "city": "Pickerington",
    "state": "OH",
    "postal_code": "43147",
    "latitude": 39.928553,
    "longitude": -82.786246,
    "stars": 3.0,
    "review_count": 19,
    "is_open": 1,
    "attributes": {
      "BusinessAcceptsCreditCards": "True",
      "ByAppointmentOnly": "False",
      "BikeParking": "False",
      "GoodForKids": "False",
      "BusinessParking": "{'garage': False, 'street': False, 'validated': False, 'lot': False, 'valet': False}",
      "RestaurantsPriceRange2": "2"
    },
    "categories": "Beauty & Spas, Nail Salons, Hair Salons, Cosmetics & Beauty Supply, Blow Dry/Out Services, Shopping, Skin Care",
    "hours": {
      "Monday": "10:0-19:0",
      "Tuesday": "10:0-19:0",
      "Wednesday": "10:0-19:0",
      "Thursday": "10:0-18:0",
      "Friday": "10:0-18:0",
      "Saturday": "10:0-19:0",
      "Sunday": "11:0-19:0"
    }
  },
  {
    "business_id": "VhNv5xDEkD0SxruGCS1tyw",
    "name": "Ulta Beauty",
    "address": "1711 Stringtown Rd",
    "city": "Grove City",
    "state": "OH",
    "postal_code": "43123",
    "latitude": 39.876019,
    "longitude": -83.044507,
    "stars": 2.5,
    "review_count": 10,
    "is_open": 1,
    "attributes": {
      "BusinessParking": "{'garage': False, 'street': False, 'validated': False, 'lot': False, 'valet': False}"
    },
    "categories": "Cosmetics & Beauty Supply, Beauty & Spas, Hair Salons, Skin Care, Shopping",
    "hours": {
      "Monday": "10:0-19:0",
      "Tuesday": "10:0-19:0",
      "Wednesday": "10:0-19:0",
      "Thursday": "10:0-18:0",
      "Friday": "10:0-18:0",
      "Saturday": "10:0-19:0",
      "Sunday": "11:0-19:0"
    }
  },
  {
    "business_id": "4RS-rTQyfF1VgoCQeIcojA",
    "name": "Ulta Beauty",
    "address": "1286 Worcester St",
    "city": "Natick",
    "state": "MA",
    "postal_code": "01760",
    "latitude": 42.298156,
    "longitude": -71.38212,
    "stars": 3.0,
    "review_count": 56,
    "is_open": 0,
    "attributes": {
      "BusinessParking": "{'garage': False, 'street': False, 'validated': False, 'lot': True, 'valet': False}",
      "RestaurantsPriceRange2": "2",
      "GoodForKids": "False",
      "ByAppointmentOnly": "False",
      "BikeParking": "False",
      "BusinessAcceptsCreditCards": "False"
    },
    "categories": "Cosmetics & Beauty Supply, Skin Care, Beauty & Spas, Shopping, Hair Salons",
    "hours": {
      "Monday": "10:0-21:0",
      "Tuesday": "10:0-21:0",
      "Wednesday": "10:0-21:0",
      "Thursday": "10:0-21:0",
      "Friday": "10:0-21:0",
      "Saturday": "10:0-21:0",
      "Sunday": "11:0-18:0"
    }
  },
  {
    "business_id": "goJNsNqY1tsFqnRnAss9Tg",
    "name": "Rec Consultants",
    "address": "59 Crescent St",
    "city": "Winthrop",
    "state": "MA",
    "postal_code": "02152",
    "latitude": 42.3809876,
    "longitude": -70.9765755,
    "stars": 5.0,
    "review_count": 21,
    "is_open": 1,
    "attributes": {
      "BusinessAcceptsCreditCards": "False",
      "ByAppointmentOnly": "True"
    },
    "categories": "Home Services, Home Inspectors",
    "hours": {
      "Monday": "7:0-15:0",
      "Tuesday": "7:0-15:0",
      "Wednesday": "7:0-15:0",
      "Thursday": "7:0-15:0",
      "Friday": "7:0-15:0",
      "Saturday": "7:0-15:0",
      "Sunday": "9:30-13:0"
    }
  },
  {
    "business_id": "kd00hShkxQrwbTrGNnPO6g",
    "name": "Ulta Beauty",
    "address": "1500 N Tomahawk Island Dr",
    "city": "Portland",
    "state": "OR",
    "postal_code": "97217",
    "latitude": 45.611995,
    "longitude": -122.6836733,
    "stars": 3.5,
    "review_count": 39,
    "is_open": 1,
    "attributes": {
      "BusinessAcceptsCreditCards": "True",
      "RestaurantsPriceRange2": "2",
      "BusinessParking": "{'garage': False, 'street': True, 'validated': False, 'lot': False, 'valet': False}",
      "ByAppointmentOnly": "False",
      "BikeParking": "True",
      "GoodForKids": "False"
    },
    "categories": "Shopping, Cosmetics & Beauty Supply, Beauty & Spas, Skin Care, Hair Salons",
    "hours": {
      "Monday": "10:0-19:0",
      "Tuesday": "10:0-19:0",
      "Wednesday": "10:0-19:0",
      "Thursday": "10:0-19:0",
      "Friday": "10:0-19:0",
      "Saturday": "10:0-19:0",
      "Sunday": "11:0-18:0"
    }
  },
  {
    "business_id": "02dpmPgUVwh983SwM-ga8A",
    "name": "Details Design Consultants",
    "address": "",
    "city": "Newton Centre",
    "state": "MA",
    "postal_code": "02459",
    "latitude": 42.3028239,
    "longitude": -71.1864397,
    "stars": 5.0,
    "review_count": 6,
    "is_open": 1,
    "attributes": {
      "ByAppointmentOnly": "True",
      "BusinessAcceptsCreditCards": "False"
    },
    "categories": "Home Services, Interior Design",
    "hours": null
  },
  {
    "business_id": "PSRF3x4CJ7s9tu2DJSfX7A",
    "name": "Ulta Beauty",
    "address": "1425 Tuskawilla Rd, Ste 239",
    "city": "Winter Springs",
    "state": "FL",
    "postal_code": "32708",
    "latitude": 28.645348,
    "longitude": -81.265989,
    "stars": 4.0,
    "review_count": 12,
    "is_open": 1,
    "attributes": {
      "BusinessParking": "{'garage': False, 'street': False, 'validated': False, 'lot': False, 'valet': False}"
    },
    "categories": "Shopping, Cosmetics & Beauty Supply, Beauty & Spas, Skin Care, Hair Salons",
    "hours": {
      "Monday": "10:0-19:0",
      "Tuesday": "10:0-19:0",
      "Wednesday": "10:0-19:0",
      "Thursday": "10:0-19:0",
      "Friday": "10:0-19:0",
      "Saturday": "10:0-19:0",
      "Sunday": "11:0-18:0"
    }
  },
  {
    "business_id": "U6R7ffSSYZoKERJTpNDaUg",
    "name": "SurfZone Engineering Consultants",
    "address": "",
    "city": "Boston",
    "state": "MA",
    "postal_code": "02132",
    "latitude": 42.3600825,
    "longitude": -71.0588801,
    "stars": 5.0,
    "review_count": 10,
    "is_open": 1,
    "attributes": {
      "BusinessAcceptsCreditCards": "False",
      "ByAppointmentOnly": "False",
      "BusinessAcceptsBitcoin": "False"
    },
    "categories": "Structural Engineers, Scuba Diving, Diving, Active Life, Professional Services, Home Services",
    "hours": {
      "Monday": "9:0-17:0",
      "Tuesday": "9:0-17:0",
      "Wednesday": "9:0-17:0",
      "Thursday": "9:0-17:0",
      "Friday": "9:0-17:0"
    }
  },
  {
    "business_id": "2mW_XdoYBHUOjCfpCphcYA",
    "name": "Dermatology Consultants",
    "address": "3280 Howell Mill Rd NW, Ste 101",
    "city": "Atlanta",
    "state": "GA",
    "postal_code": "30327",
    "latitude": 33.8439383958,
    "longitude": -84.4287614436,
    "stars": 3.5,
    "review_count": 74,
    "is_open": 1,
    "attributes": {
      "ByAppointmentOnly": "True",
      "BusinessAcceptsCreditCards": "True",
      "WheelchairAccessible": "True",
      "BusinessAcceptsBitcoin": "False",
      "BusinessParking": "{'garage': True, 'street': False, 'validated': False, 'lot': False, 'valet': False}",
      "WiFi": "u'free'",
      "BikeParking": "True",
      "AcceptsInsurance": "True"
    },
    "categories": "Health & Medical, Beauty & Spas, Dermatologists, Cosmetic Surgeons, Doctors, Body Contouring, Medical Spas, Permanent Makeup, Aestheticians, Skin Care",
    "hours": {
      "Monday": "0:0-0:0",
      "Tuesday": "7:0-16:30",
      "Wednesday": "7:0-16:30",
      "Thursday": "7:0-16:30",
      "Friday": "7:0-16:30"
    }
  },
  {
    "business_id": "KSRURJ1xlQ_9PsJejs1ClA",
    "name": "American Dental Consultants",
    "address": "578 Main St",
    "city": "Malden",
    "state": "MA",
    "postal_code": "02148",
    "latitude": 42.4294339524,
    "longitude": -71.0677279159,
    "stars": 2.0,
    "review_count": 8,
    "is_open": 1,
    "attributes": null,
    "categories": "Pediatric Dentists, Prosthodontists, Health & Medical, General Dentistry, Dentists, Endodontists",
    "hours": null
  },
  {
    "business_id": "OuD4EBJn9T5q2y26A6TfNQ",
    "name": "Ulta Beauty",
    "address": "7081 SW Nyberg St",
    "city": "Tualatin",
    "state": "OR",
    "postal_code": "97062",
    "latitude": 45.3829538,
    "longitude": -122.7479722,
    "stars": 3.0,
    "review_count": 74,
    "is_open": 1,
    "attributes": {
      "ByAppointmentOnly": "False",
      "BusinessAcceptsCreditCards": "True",
      "GoodForKids": "False",
      "RestaurantsPriceRange2": "2",
      "BusinessParking": "{'garage': False, 'street': False, 'validated': False, 'lot': True, 'valet': False}",
      "BikeParking": "True"
    },
    "categories": "Cosmetics & Beauty Supply, Skin Care, Beauty & Spas, Shopping, Hair Salons, Hair Stylists",
    "hours": {
      "Monday": "10:0-19:0",
      "Tuesday": "10:0-19:0",
      "Wednesday": "10:0-19:0",
      "Thursday": "10:0-19:0",
      "Friday": "10:0-19:0",
      "Saturday": "10:0-19:0",
      "Sunday": "11:0-18:0"
    }
  },
  {
    "business_id": "ZtopiY9EcY8D3HicEcMJ5g",
    "name": "Boston Ultrasound Consultants, PC",
    "address": "55 Pond Ave",
    "city": "Brookline",
    "state": "MA",
    "postal_code": "02445",
    "latitude": 42.330305,
    "longitude": -71.114689,
    "stars": 2.0,
    "review_count": 5,
    "is_open": 1,
    "attributes": {
      "ByAppointmentOnly": "True",
      "BusinessAcceptsCreditCards": "True"
    },
    "categories": "Fitness & Instruction, Trainers, Health & Medical, Active Life, Doctors",
    "hours": null
  },
  {
    "business_id": "nhkDSQkf6ExKqNYO13tY5w",
    "name": "Texas Nutrition Consultants",
    "address": "5900 Balcones Dr, Ste 165",
    "city": "Austin",
    "state": "TX",
    "postal_code": "78731",
    "latitude": 30.3415225,
    "longitude": -97.7549277,
    "stars": 3.0,
    "review_count": 15,
    "is_open": 1,
    "attributes": {
      "ByAppointmentOnly": "True"
    },
    "categories": "Health & Medical, Nutritionists",
    "hours": {
      "Monday": "8:0-17:0",
      "Tuesday": "8:0-17:0",
      "Wednesday": "8:0-17:0",
      "Thursday": "8:0-17:0",
      "Friday": "8:0-17:0"
    }
  },
  {
    "business_id": "PFlWbqe46ci-WeDG1IauZw",
    "name": "Ulta Cosmetics",
    "address": "451 E Altamonte Dr, Ste 1473",
    "city": "Altamonte Springs",
    "state": "FL",
    "postal_code": "32701",
    "latitude": 28.6665743,
    "longitude": -81.3773794,
    "stars": 3.0,
    "review_count": 22,
    "is_open": 0,
    "attributes": {
      "BusinessAcceptsCreditCards": "True",
      "RestaurantsPriceRange2": "2",
      "ByAppointmentOnly": "False",
      "BikeParking": "True",
      "BusinessParking": "{'garage': True, 'street': False, 'validated': False, 'lot': False, 'valet': False}"
    },
    "categories": "Beauty & Spas, Shopping, Cosmetics & Beauty Supply",
    "hours": {
      "Monday": "10:0-21:0",
      "Tuesday": "10:0-21:0",
      "Wednesday": "10:0-21:0",
      "Thursday": "10:0-18:0",
      "Friday": "10:0-18:0",
      "Saturday": "10:0-21:0",
      "Sunday": "11:0-18:0"
    }
  },
  {
    "business_id": "A9Q6My3XLiUNMnOec8cK4w",
    "name": "Ulta Beauty",
    "address": "3632 W Dublin Granville Rd",
    "city": "Columbus",
    "state": "OH",
    "postal_code": "43235",
    "latitude": 40.0972438575,
    "longitude": -83.0848311054,
    "stars": 3.5,
    "review_count": 17,
    "is_open": 1,
    "attributes": {
      "ByAppointmentOnly": "False",
      "BusinessAcceptsCreditCards": "True",
      "GoodForKids": "False",
      "RestaurantsPriceRange2": "2"
    },
    "categories": "Skin Care, Hair Salons, Shopping, Beauty & Spas, Cosmetics & Beauty Supply",
    "hours": {
      "Monday": "10:0-19:0",
      "Tuesday": "10:0-19:0",
      "Wednesday": "10:0-19:0",
      "Thursday": "10:0-19:0",
      "Friday": "10:0-19:0",
      "Saturday": "10:0-19:0",
      "Sunday": "11:0-18:0"
    }
  },
  {
    "business_id": "JmIbwbgAeE7Sviy4N05Iqw",
    "name": "Ulta Beauty",
    "address": "530 Marshall Rd",
    "city": "Superior",
    "state": "CO",
    "postal_code": "80027",
    "latitude": 39.9583591,
    "longitude": -105.1742047,
    "stars": 2.0,
    "review_count": 17,
    "is_open": 1,
    "attributes": {
      "RestaurantsPriceRange2": "3",
      "ByAppointmentOnly": "False",
      "GoodForKids": "False",
      "BusinessParking": "{'garage': False, 'street': False, 'validated': False, 'lot': True, 'valet': False}",
      "BikeParking": "True",
      "BusinessAcceptsCreditCards": "True"
    },
    "categories": "Nail Salons, Shopping, Cosmetics & Beauty Supply, Beauty & Spas, Skin Care, Hair Salons",
    "hours": {
      "Monday": "10:0-19:0",
      "Tuesday": "10:0-19:0",
      "Wednesday": "10:0-19:0",
      "Thursday": "10:0-18:0",
      "Friday": "10:0-18:0",
      "Saturday": "10:0-19:0",
      "Sunday": "11:0-19:0"
    }
  },
  {
    "business_id": "ijO8hXH08Vv1V3I4te9QKg",
    "name": "Eye Consultants of Atlanta - Cumberland",
    "address": "3225 Cumberland Blvd SE",
    "city": "Atlanta",
    "state": "GA",
    "postal_code": "30339",
    "latitude": 33.8777722,
    "longitude": -84.4610841,
    "stars": 3.5,
    "review_count": 54,
    "is_open": 1,
    "attributes": {
      "ByAppointmentOnly": "True",
      "WheelchairAccessible": "True",
      "BikeParking": "True",
      "BusinessParking": "{'garage': False, 'street': False, 'validated': False, 'lot': False, 'valet': False}",
      "WiFi": "u'free'",
      "BusinessAcceptsCreditCards": "True"
    },
    "categories": "Laser Eye Surgery/Lasik, Surgeons, Doctors, Optometrists, Medical Supplies, Pediatricians, Eyewear & Opticians, Ophthalmologists, Health & Medical, Shopping",
    "hours": {
      "Monday": "8:0-16:30",
      "Tuesday": "8:0-16:30",
      "Wednesday": "8:0-16:30",
      "Thursday": "8:0-16:30",
      "Friday": "8:0-16:0"
    }
  },
  {
    "business_id": "ZISm1pyt72i0SXJEotDq-g",
    "name": "Ulta Beauty",
    "address": "520 N Orlando Ave",
    "city": "Winter Park",
    "state": "FL",
    "postal_code": "32789",
    "latitude": 28.603102,
    "longitude": -81.36334,
    "stars": 3.5,
    "review_count": 70,
    "is_open": 1,
    "attributes": {
      "ByAppointmentOnly": "False",
      "GoodForKids": "False",
      "RestaurantsPriceRange2": "2",
      "BusinessParking": "{'garage': False, 'street': False, 'validated': False, 'lot': True, 'valet': False}",
      "BikeParking": "True",
      "DogsAllowed": "False",
      "BusinessAcceptsCreditCards": "False"
    },
    "categories": "Makeup Artists, Skin Care, Day Spas, Beauty & Spas, Hair Stylists, Shopping, Hair Salons, Cosmetics & Beauty Supply",
    "hours": {
      "Monday": "10:0-19:0",
      "Tuesday": "10:0-19:0",
      "Wednesday": "10:0-19:0",
      "Thursday": "10:0-19:0",
      "Friday": "10:0-19:0",
      "Saturday": "10:0-19:0",
      "Sunday": "11:0-18:0"
    }
  },
  {
    "business_id": "681pvUr4IbF-kJT4oQ_xbw",
    "name": "Pain Management Consultants PA",
    "address": "101 W Koenig Ln, Ste 100",
    "city": "Austin",
    "state": "TX",
    "postal_code": "78751",
    "latitude": 30.3220987,
    "longitude": -97.7200697,
    "stars": 4.0,
    "review_count": 9,
    "is_open": 1,
    "attributes": {
      "ByAppointmentOnly": "True",
      "BusinessAcceptsCreditCards": "True",
      "AcceptsInsurance": "True"
    },
    "categories": "Health & Medical, Pain Management, Doctors",
    "hours": null
  },
  {
    "business_id": "oiZdOgfvivwFhtNUrUiBNQ",
    "name": "The Design Consultants",
    "address": "33 Waterfall Dr, Ste G",
    "city": "Canton",
    "state": "MA",
    "postal_code": "02021",
    "latitude": 42.15211,
    "longitude": -71.136307,
    "stars": 1.0,
    "review_count": 8,
    "is_open": 0,
    "attributes": {
      "BusinessAcceptsCreditCards": "False"
    },
    "categories": "Interior Design, Home Services",
    "hours": {
      "Monday": "9:0-17:0",
      "Tuesday": "9:0-17:0",
      "Wednesday": "9:0-17:0",
      "Thursday": "9:0-17:0",
      "Friday": "9:0-17:0"
    }
  },
  {
    "business_id": "-Q1qcyni6Y2XAoUS4cQ0fQ",
    "name": "Allergy & Asthma Consultants",
    "address": "720 W 34th St, Ste 200",
    "city": "Austin",
    "state": "TX",
    "postal_code": "78705",
    "latitude": 30.3019854,
    "longitude": -97.7427249,
    "stars": 4.0,
    "review_count": 43,
    "is_open": 1,
    "attributes": {
      "ByAppointmentOnly": "True",
      "WiFi": "u'free'",
      "AcceptsInsurance": "True",
      "BusinessAcceptsCreditCards": "True"
    },
    "categories": "Allergists, Health & Medical, Doctors, Pulmonologist",
    "hours": {
      "Monday": "8:0-16:30",
      "Tuesday": "8:0-16:30",
      "Wednesday": "13:0-16:30",
      "Thursday": "8:0-16:30",
      "Friday": "8:0-16:30",
      "Saturday": "9:0-11:30"
    }
  },
  {
    "business_id": "9ehk_B3F8O1wRSu0E5Lixw",
    "name": "Sleep Medicine Consultants",
    "address": "5508 Parkcrest Dr, Ste 310",
    "city": "Austin",
    "state": "TX",
    "postal_code": "78731",
    "latitude": 30.3369239,
    "longitude": -97.7593339,
    "stars": 3.5,
    "review_count": 20,
    "is_open": 1,
    "attributes": {
      "ByAppointmentOnly": "True",
      "BusinessAcceptsCreditCards": "True"
    },
    "categories": "Sleep Specialists, Doctors, Health & Medical",
    "hours": {
      "Monday": "9:0-17:0",
      "Tuesday": "9:0-17:0",
      "Wednesday": "9:0-17:0",
      "Thursday": "9:0-17:0",
      "Friday": "9:0-17:0"
    }
  },
  {
    "business_id": "wjTWBCVTnh5nybeom_pb1g",
    "name": "The Guitar Consultant",
    "address": "316 Meadow Lea Dr",
    "city": "Austin",
    "state": "TX",
    "postal_code": "78745",
    "latitude": 30.1887916,
    "longitude": -97.7856169,
    "stars": 5.0,
    "review_count": 17,
    "is_open": 1,
    "attributes": {
      "WheelchairAccessible": "False",
      "RestaurantsPriceRange2": "1",
      "BikeParking": "True",
      "DogsAllowed": "False",
      "BusinessAcceptsCreditCards": "False",
      "BusinessParking": "{'garage': False, 'street': True, 'validated': False, 'lot': False, 'valet': False}",
      "BusinessAcceptsBitcoin": "False"
    },
    "categories": "Education, Private Tutors, Musical Instruments & Teachers, Shopping",
    "hours": {
      "Monday": "15:0-21:0",
      "Tuesday": "15:0-21:0",
      "Wednesday": "15:0-21:0",
      "Thursday": "15:0-21:0",
      "Friday": "15:0-21:0",
      "Sunday": "11:0-17:0"
    }
  },
  {
    "business_id": "AXisYapYD2NKEu9pIupI3g",
    "name": "Ulta Beauty",
    "address": "10245 NE Cascades Pkwy",
    "city": "Portland",
    "state": "OR",
    "postal_code": "97220",
    "latitude": 45.573925,
    "longitude": -122.5566425,
    "stars": 4.0,
    "review_count": 23,
    "is_open": 1,
    "attributes": {
      "ByAppointmentOnly": "False",
      "BikeParking": "True",
      "RestaurantsPriceRange2": "2",
      "BusinessAcceptsCreditCards": "True"
    },
    "categories": "Hair Salons, Skin Care, Cosmetics & Beauty Supply, Shopping, Beauty & Spas",
    "hours": {
      "Monday": "10:0-19:0",
      "Tuesday": "10:0-19:0",
      "Wednesday": "10:0-19:0",
      "Thursday": "10:0-19:0",
      "Friday": "10:0-19:0",
      "Saturday": "10:0-19:0",
      "Sunday": "11:0-18:0"
    }
  },
  {
    "business_id": "0ho8JIYROw-RQokm5__BYg",
    "name": "Ulta Beauty",
    "address": "1645 W Lane Ave",
    "city": "Upper Arlington",
    "state": "OH",
    "postal_code": "43221",
    "latitude": 40.0067704,
    "longitude": -83.0544867,
    "stars": 3.0,
    "review_count": 26,
    "is_open": 1,
    "attributes": {
      "ByAppointmentOnly": "True",
      "RestaurantsPriceRange2": "2",
      "BusinessParking": "None",
      "BikeParking": "False",
      "BusinessAcceptsCreditCards": "False"
    },
    "categories": "Hair Salons, Hair Removal, Cosmetics & Beauty Supply, Waxing, Shopping, Beauty & Spas, Makeup Artists",
    "hours": {
      "Monday": "10:0-19:0",
      "Tuesday": "10:0-19:0",
      "Wednesday": "10:0-19:0",
      "Thursday": "10:0-19:0",
      "Friday": "10:0-19:0",
      "Saturday": "10:0-19:0",
      "Sunday": "11:0-18:0"
    }
  },
  {
    "business_id": "naPCFRocXm4-cbhM5WzgrA",
    "name": "Ulta Beauty",
    "address": "237 University Ave",
    "city": "Westwood",
    "state": "MA",
    "postal_code": "02090",
    "latitude": 42.2038095,
    "longitude": -71.155896,
    "stars": 4.0,
    "review_count": 35,
    "is_open": 1,
    "attributes": {
      "RestaurantsPriceRange2": "2",
      "BusinessParking": "{'garage': False, 'street': False, 'validated': False, 'lot': False, 'valet': False}",
      "BusinessAcceptsCreditCards": "True",
      "BikeParking": "True",
      "ByAppointmentOnly": "False"
    },
    "categories": "Shopping, Cosmetics & Beauty Supply, Hair Salons, Skin Care, Beauty & Spas",
    "hours": {
      "Monday": "10:0-19:0",
      "Tuesday": "10:0-19:0",
      "Wednesday": "10:0-19:0",
      "Thursday": "10:0-19:0",
      "Friday": "10:0-19:0",
      "Saturday": "10:0-19:0",
      "Sunday": "11:0-18:0"
    }
  },
  {
    "business_id": "MYBS1RY9cdb5vs90W0tw6A",
    "name": "Gastroenterology Consultants of Central Florida PA",
    "address": "10800 Dylan Loren Cir",
    "city": "Orlando",
    "state": "FL",
    "postal_code": "32825",
    "latitude": 28.5405887,
    "longitude": -81.226819,
    "stars": 3.0,
    "review_count": 5,
    "is_open": 1,
    "attributes": {
      "ByAppointmentOnly": "True",
      "BusinessAcceptsCreditCards": "True"
    },
    "categories": "Doctors, Health & Medical, Internal Medicine",
    "hours": null
  },
  {
    "business_id": "kswjM4MOaW-Ae07PbKWS-A",
    "name": "Evins Personnel Consultants",
    "address": "2013 W Anderson Ln",
    "city": "Austin",
    "state": "TX",
    "postal_code": "78757",
    "latitude": 30.3543337,
    "longitude": -97.7282187,
    "stars": 2.0,
    "review_count": 36,
    "is_open": 1,
    "attributes": {
      "ByAppointmentOnly": "False"
    },
    "categories": "Career Counseling, Professional Services, Employment Agencies, Personal Assistants, Health & Medical, Medical Centers, Payroll Services, Business Consulting",
    "hours": {
      "Monday": "0:0-0:0",
      "Tuesday": "7:30-15:0",
      "Wednesday": "7:30-17:30",
      "Thursday": "7:30-17:30",
      "Friday": "7:30-17:30"
    }
  },
  {
    "business_id": "ltoP3soSA57o1f1UawghJw",
    "name": "Microsurgical Eye Consultants",
    "address": "31 Centennial Dr",
    "city": "Peabody",
    "state": "MA",
    "postal_code": "01960",
    "latitude": 42.524375,
    "longitude": -70.952123,
    "stars": 3.0,
    "review_count": 23,
    "is_open": 1,
    "attributes": {
      "BusinessAcceptsCreditCards": "True",
      "WiFi": "u'free'",
      "ByAppointmentOnly": "True"
    },
    "categories": "Doctors, Health & Medical, Ophthalmologists, Optometrists, Laser Eye Surgery/Lasik",
    "hours": {
      "Monday": "8:0-17:0",
      "Tuesday": "8:0-17:0",
      "Wednesday": "8:0-17:0",
      "Thursday": "8:0-17:0",
      "Friday": "8:0-17:0"
    }
  },
  {
    "business_id": "fTTUnKcPwBpDonJnJ3Owxg",
    "name": "Stephen M Vultaggio, DDS",
    "address": "115A Thoreau St",
    "city": "Concord",
    "state": "MA",
    "postal_code": "01742",
    "latitude": 42.4566899,
    "longitude": -71.3562613,
    "stars": 4.0,
    "review_count": 11,
    "is_open": 1,
    "attributes": {
      "ByAppointmentOnly": "True",
      "AcceptsInsurance": "True",
      "BusinessAcceptsCreditCards": "True"
    },
    "categories": "Dentists, Oral Surgeons, Health & Medical, Periodontists, Dental Hygienists",
    "hours": {
      "Monday": "8:0-18:0",
      "Tuesday": "8:0-18:0",
      "Wednesday": "8:0-18:0",
      "Thursday": "8:0-13:0",
      "Friday": "8:0-13:0"
    }
  },
  {
    "business_id": "yl3G5GJEm6e_ucWmWlbCuw",
    "name": "Ulta Beauty",
    "address": "2540 Cumberland Blvd SE",
    "city": "Smyrna",
    "state": "GA",
    "postal_code": "30080",
    "latitude": 33.8885479,
    "longitude": -84.4777318,
    "stars": 2.0,
    "review_count": 48,
    "is_open": 1,
    "attributes": {
      "ByAppointmentOnly": "False",
      "GoodForKids": "False",
      "BusinessParking": "{'garage': False, 'street': False, 'validated': False, 'lot': True, 'valet': False}",
      "BusinessAcceptsCreditCards": "True",
      "BikeParking": "False",
      "RestaurantsPriceRange2": "2"
    },
    "categories": "Beauty & Spas, Skin Care, Shopping, Hair Salons, Cosmetics & Beauty Supply",
    "hours": {
      "Monday": "10:0-19:0",
      "Tuesday": "10:0-19:0",
      "Wednesday": "10:0-19:0",
      "Thursday": "10:0-19:0",
      "Friday": "10:0-19:0",
      "Saturday": "10:0-19:0",
      "Sunday": "11:0-18:0"
    }
  },
  {
    "business_id": "2sQFYYsE8GimiqbwfPG3lw",
    "name": "Ulta Beauty",
    "address": "3255 SW Cedar Hills Blvd, Ste 150, Cedar Hills Crossings",
    "city": "Beaverton",
    "state": "OR",
    "postal_code": "97005",
    "latitude": 45.495873,
    "longitude": -122.810807,
    "stars": 3.0,
    "review_count": 98,
    "is_open": 1,
    "attributes": {
      "ByAppointmentOnly": "False",
      "BusinessParking": "{'garage': False, 'street': False, 'validated': False, 'lot': True, 'valet': False}",
      "BusinessAcceptsCreditCards": "True",
      "BikeParking": "True",
      "RestaurantsPriceRange2": "2",
      "GoodForKids": "False"
    },
    "categories": "Cosmetics & Beauty Supply, Beauty & Spas, Hair Salons, Shopping, Skin Care",
    "hours": {
      "Monday": "10:0-19:0",
      "Tuesday": "10:0-19:0",
      "Wednesday": "10:0-19:0",
      "Thursday": "10:0-18:0",
      "Friday": "10:0-18:0",
      "Saturday": "10:0-19:0",
      "Sunday": "11:0-19:0"
    }
  },
  {
    "business_id": "V0bkAdmnzK4Vzy-ZnKvkng",
    "name": "Ulta Beauty",
    "address": "5207 Brodie Ln, Ste 180, Sunset Valley Homestead",
    "city": "Sunset Valley",
    "state": "TX",
    "postal_code": "78745",
    "latitude": 30.2306535,
    "longitude": -97.8149562,
    "stars": 3.0,
    "review_count": 134,
    "is_open": 1,
    "attributes": {
      "RestaurantsPriceRange2": "2",
      "ByAppointmentOnly": "False",
      "BusinessParking": "{'garage': False, 'street': False, 'validated': False, 'lot': True, 'valet': False}",
      "BikeParking": "False",
      "GoodForKids": "False",
      "BusinessAcceptsCreditCards": "False"
    },
    "categories": "Cosmetics & Beauty Supply, Beauty & Spas, Hair Salons, Shopping, Skin Care",
    "hours": {
      "Monday": "10:0-19:0",
      "Tuesday": "10:0-19:0",
      "Wednesday": "10:0-19:0",
      "Thursday": "10:0-19:0",
      "Friday": "10:0-19:0",
      "Saturday": "10:0-19:0",
      "Sunday": "11:0-18:0"
    }
  },
  {
    "business_id": "6QUS4mR3_CIzADI-7jY6HQ",
    "name": "Soigne Style Consultants",
    "address": "",
    "city": "Austin",
    "state": "TX",
    "postal_code": "73301",
    "latitude": 30.2228447,
    "longitude": -97.7473572,
    "stars": 5.0,
    "review_count": 6,
    "is_open": 0,
    "attributes": {
      "RestaurantsPriceRange2": "2",
      "BusinessAcceptsCreditCards": "False",
      "BusinessParking": "{'garage': False, 'street': False, 'validated': False, 'lot': False, 'valet': False}",
      "ByAppointmentOnly": "True",
      "BikeParking": "False"
    },
    "categories": "Men's Clothing, Shopping, Fashion, Personal Shopping, Professional Services, Women's Clothing",
    "hours": {
      "Monday": "9:0-21:0",
      "Tuesday": "9:0-21:0",
      "Wednesday": "9:0-21:0",
      "Thursday": "9:0-21:0",
      "Friday": "9:0-21:0",
      "Saturday": "9:0-18:0"
    }
  },
  {
    "business_id": "eBOsp5BFltUwBzaXdHiN2Q",
    "name": "Sultan Hookah Lounge",
    "address": "2983 Vineland Rd",
    "city": "Kissimmee",
    "state": "FL",
    "postal_code": "34746",
    "latitude": 28.3376824,
    "longitude": -81.4800205,
    "stars": 4.0,
    "review_count": 8,
    "is_open": 1,
    "attributes": {
      "HasTV": "True",
      "RestaurantsReservations": "True",
      "Ambience": "{'romantic': False, 'intimate': False, 'classy': False, 'hipster': False, 'divey': False, 'touristy': False, 'trendy': False, 'upscale': False, 'casual': False}",
      "GoodForDancing": "False",
      "OutdoorSeating": "True",
      "RestaurantsPriceRange2": "2",
      "BusinessAcceptsCreditCards": "True",
      "RestaurantsGoodForGroups": "True"
    },
    "categories": "Bars, Coffee & Tea, Hookah Bars, Lounges, Nightlife, Mediterranean, Food, Restaurants",
    "hours": {
      "Monday": "14:0-4:0",
      "Tuesday": "14:0-4:0",
      "Wednesday": "14:0-4:0",
      "Thursday": "14:0-4:0",
      "Friday": "14:0-4:0",
      "Saturday": "14:0-4:0",
      "Sunday": "14:0-4:0"
    }
  },
  {
    "business_id": "il9IDIP0qNQIlc3Q7df3yw",
    "name": "Ulta Beauty",
    "address": "9500 S Ih 35 Service Rd Sb, Bldg I",
    "city": "Austin",
    "state": "TX",
    "postal_code": "78748",
    "latitude": 30.1645715,
    "longitude": -97.7930677,
    "stars": 3.0,
    "review_count": 97,
    "is_open": 1,
    "attributes": {
      "BusinessParking": "{'garage': False, 'street': False, 'validated': False, 'lot': True, 'valet': False}",
      "ByAppointmentOnly": "True",
      "RestaurantsPriceRange2": "2",
      "GoodForKids": "False",
      "BusinessAcceptsCreditCards": "False",
      "BikeParking": "False"
    },
    "categories": "Cosmetics & Beauty Supply, Beauty & Spas, Makeup Artists, Skin Care, Shopping, Hair Salons",
    "hours": {
      "Monday": "10:0-19:0",
      "Tuesday": "10:0-19:0",
      "Wednesday": "10:0-19:0",
      "Thursday": "10:0-18:0",
      "Friday": "10:0-18:0",
      "Saturday": "10:0-19:0",
      "Sunday": "11:0-19:0"
    }
  },
  {
    "business_id": "rxyzvQi9UNZaSsMjFf1P_A",
    "name": "Halstead's Arboriculture Consultants",
    "address": "",
    "city": "Tualatin",
    "state": "OR",
    "postal_code": "97062",
    "latitude": 45.3611308,
    "longitude": -122.7700372,
    "stars": 3.0,
    "review_count": 6,
    "is_open": 1,
    "attributes": null,
    "categories": "Home Services, Local Services, Tree Services, Pest Control",
    "hours": null
  },
  {
    "business_id": "F4mGX3bwLEI3PIHSD4sgvQ",
    "name": "Ulta 3 Cosmetics",
    "address": "4737 Ashford Dunwoody Rd",
    "city": "Atlanta",
    "state": "GA",
    "postal_code": "30338",
    "latitude": 33.932609,
    "longitude": -84.336658,
    "stars": 3.0,
    "review_count": 5,
    "is_open": 1,
    "attributes": {
      "RestaurantsPriceRange2": "2",
      "BusinessParking": "{'garage': False, 'street': False, 'validated': False, 'lot': False, 'valet': False}",
      "BusinessAcceptsCreditCards": "True",
      "ByAppointmentOnly": "False",
      "BikeParking": "False"
    },
    "categories": "Shopping, Beauty & Spas, Cosmetics & Beauty Supply",
    "hours": null
  },
  {
    "business_id": "8e5JXiIn4Gi-OLt42SF-ww",
    "name": "Austin Pulmonary Consultants",
    "address": "5920 W William Cannon, Bld 1 Ste 150",
    "city": "Austin",
    "state": "TX",
    "postal_code": "78749",
    "latitude": 30.2306025,
    "longitude": -97.860127,
    "stars": 3.0,
    "review_count": 8,
    "is_open": 1,
    "attributes": {
      "ByAppointmentOnly": "True"
    },
    "categories": "Pulmonologist, Doctors, Cardiologists, Health & Medical",
    "hours": {
      "Monday": "8:0-17:0",
      "Tuesday": "8:0-17:0",
      "Wednesday": "8:0-17:0",
      "Thursday": "8:0-17:0",
      "Friday": "8:30-15:0"
    }
  },
  {
    "business_id": "EajjpqLTxc7ktSPTFYvmlw",
    "name": "Ulta Beauty",
    "address": "1801 Howell Mill Rd NW, Ste 240",
    "city": "Atlanta",
    "state": "GA",
    "postal_code": "30318",
    "latitude": 33.80295,
    "longitude": -84.410801,
    "stars": 2.5,
    "review_count": 83,
    "is_open": 1,
    "attributes": {
      "BusinessParking": "{'garage': False, 'street': False, 'validated': False, 'lot': True, 'valet': False}",
      "RestaurantsPriceRange2": "2",
      "BusinessAcceptsCreditCards": "True",
      "GoodForKids": "False",
      "BikeParking": "False",
      "ByAppointmentOnly": "False"
    },
    "categories": "Beauty & Spas, Day Spas, Shopping, Waxing, Hair Salons, Skin Care, Cosmetics & Beauty Supply, Hair Removal",
    "hours": {
      "Monday": "10:0-19:0",
      "Tuesday": "10:0-19:0",
      "Wednesday": "10:0-19:0",
      "Thursday": "10:0-19:0",
      "Friday": "10:0-19:0",
      "Saturday": "10:0-19:0",
      "Sunday": "11:0-18:0"
    }
  },
  {
    "business_id": "ThcecaX7OYcLiW5FmmfoIg",
    "name": "The Sultan's Delicious Donair",
    "address": "1196 Lansdowne Drive",
    "city": "Coquitlam",
    "state": "BC",
    "postal_code": "V3E 1J7",
    "latitude": 49.2837824,
    "longitude": -122.8100117,
    "stars": 2.5,
    "review_count": 28,
    "is_open": 1,
    "attributes": {
      "BusinessParking": "{'garage': False, 'street': False, 'validated': False, 'lot': True, 'valet': False}",
      "NoiseLevel": "u'average'",
      "GoodForMeal": "{'dessert': False, 'latenight': False, 'lunch': False, 'dinner': False, 'brunch': False, 'breakfast': False}",
      "Ambience": "{'touristy': False, 'hipster': False, 'romantic': False, 'intimate': False, 'trendy': False, 'upscale': False, 'classy': False, 'casual': False}",
      "RestaurantsGoodForGroups": "True",
      "RestaurantsPriceRange2": "2",
      "RestaurantsAttire": "u'casual'",
      "GoodForKids": "True",
      "BikeParking": "True",
      "RestaurantsDelivery": "True",
      "RestaurantsReservations": "False",
      "OutdoorSeating": "None",
      "Alcohol": "u'none'",
      "RestaurantsTakeOut": "True",
      "RestaurantsTableService": "False"
    },
    "categories": "Donairs, Food, Restaurants, Mediterranean",
    "hours": {
      "Monday": "10:0-22:0",
      "Tuesday": "10:0-22:0",
      "Wednesday": "10:0-22:0",
      "Thursday": "10:0-22:0",
      "Friday": "10:0-22:0",
      "Saturday": "11:0-22:0",
      "Sunday": "11:0-21:0"
    }
  },
  {
    "business_id": "ePQV_GJ7H0RGK5IqL-LUBQ",
    "name": "Ulta Beauty",
    "address": "12909 Shops Pkwy, Ste 400, Shops at the Galleria",
    "city": "Bee Cave",
    "state": "TX",
    "postal_code": "78738",
    "latitude": 30.3054881,
    "longitude": -97.9448147,
    "stars": 3.0,
    "review_count": 52,
    "is_open": 1,
    "attributes": {
      "BikeParking": "False",
      "GoodForKids": "False",
      "ByAppointmentOnly": "True",
      "BusinessParking": "{'garage': False, 'street': False, 'validated': False, 'lot': True, 'valet': False}",
      "RestaurantsPriceRange2": "2",
      "BusinessAcceptsCreditCards": "True"
    },
    "categories": "Cosmetics & Beauty Supply, Hair Salons, Shopping, Beauty & Spas, Skin Care",
    "hours": {
      "Monday": "10:0-19:0",
      "Tuesday": "10:0-19:0",
      "Wednesday": "10:0-19:0",
      "Thursday": "10:0-19:0",
      "Friday": "10:0-19:0",
      "Saturday": "10:0-19:0",
      "Sunday": "11:0-18:0"
    }
  },
  {
    "business_id": "CMs4VuqGzkwXn321iENoDg",
    "name": "Sultana Middle Eastern Restaurant",
    "address": "5689 Vineland Rd",
    "city": "Orlando",
    "state": "FL",
    "postal_code": "32819",
    "latitude": 28.4829958,
    "longitude": -81.4565857,
    "stars": 3.5,
    "review_count": 13,
    "is_open": 0,
    "attributes": {
      "RestaurantsAttire": "'casual'",
      "RestaurantsTakeOut": "True",
      "HasTV": "False",
      "Ambience": "{'romantic': False, 'intimate': False, 'classy': False, 'hipster': False, 'divey': False, 'touristy': False, 'trendy': False, 'upscale': False, 'casual': False}",
      "RestaurantsTableService": "False",
      "NoiseLevel": "'quiet'",
      "RestaurantsPriceRange2": "1",
      "BikeParking": "True",
      "Alcohol": "u'none'",
      "GoodForKids": "True",
      "BusinessAcceptsBitcoin": "False",
      "WheelchairAccessible": "True",
      "OutdoorSeating": "True",
      "RestaurantsGoodForGroups": "True",
      "GoodForMeal": "{'dessert': False, 'latenight': False, 'lunch': False, 'dinner': False, 'brunch': False, 'breakfast': False}",
      "RestaurantsDelivery": "True",
      "RestaurantsReservations": "False",
      "BusinessParking": "{'garage': False, 'street': True, 'validated': False, 'lot': True, 'valet': False}",
      "BusinessAcceptsCreditCards": "True",
      "WiFi": "u'free'",
      "Caters": "False",
      "DogsAllowed": "False"
    },
    "categories": "Mediterranean, Middle Eastern, Fast Food, Restaurants, Halal",
    "hours": {
      "Monday": "11:0-23:0",
      "Tuesday": "11:0-23:0",
      "Wednesday": "11:0-23:0",
      "Thursday": "11:0-23:0",
      "Friday": "11:0-23:0",
      "Saturday": "11:0-23:0"
    }
  },
  {
    "business_id": "D9RuYLNrtb6LBYLGiSxJQQ",
    "name": "Ulta Beauty",
    "address": "3495 Buckhead Lp NE, Ste 120",
    "city": "Atlanta",
    "state": "GA",
    "postal_code": "30326",
    "latitude": 33.8495697,
    "longitude": -84.370264,
    "stars": 3.0,
    "review_count": 82,
    "is_open": 1,
    "attributes": {
      "BusinessParking": "{'garage': False, 'street': False, 'validated': False, 'lot': True, 'valet': False}",
      "BusinessAcceptsCreditCards": "True",
      "RestaurantsPriceRange2": "2",
      "BikeParking": "True",
      "ByAppointmentOnly": "False",
      "GoodForKids": "False",
      "DogsAllowed": "False"
    },
    "categories": "Nail Salons, Shopping, Beauty & Spas, Hair Salons, Cosmetics & Beauty Supply, Skin Care",
    "hours": {
      "Monday": "10:0-19:0",
      "Tuesday": "10:0-19:0",
      "Wednesday": "10:0-19:0",
      "Thursday": "10:0-19:0",
      "Friday": "10:0-19:0",
      "Saturday": "10:0-19:0",
      "Sunday": "11:0-18:0"
    }
  },
  {
    "business_id": "_9fnu6tWkibBqKMeZCH9Tw",
    "name": "Ulta Beauty",
    "address": "955 Harley Strickland Blvd",
    "city": "Orange City",
    "state": "FL",
    "postal_code": "32763",
    "latitude": 28.9187654,
    "longitude": -81.28668,
    "stars": 2.5,
    "review_count": 7,
    "is_open": 1,
    "attributes": {
      "BikeParking": "True",
      "BusinessAcceptsCreditCards": "False",
      "RestaurantsPriceRange2": "2",
      "ByAppointmentOnly": "False",
      "GoodForKids": "False"
    },
    "categories": "Barbers, Cosmetics & Beauty Supply, Shopping, Beauty & Spas, Hair Salons, Skin Care",
    "hours": {
      "Monday": "10:0-19:0",
      "Tuesday": "10:0-19:0",
      "Wednesday": "10:0-19:0",
      "Thursday": "10:0-19:0",
      "Friday": "10:0-19:0",
      "Saturday": "10:0-19:0",
      "Sunday": "11:0-18:0"
    }
  },
  {
    "business_id": "bEK2DluAvJGDAN71QdHKnQ",
    "name": "Ulta Beauty",
    "address": "1241 Lloyd Ctr",
    "city": "Portland",
    "state": "OR",
    "postal_code": "97232",
    "latitude": 45.53276,
    "longitude": -122.652145,
    "stars": 3.0,
    "review_count": 78,
    "is_open": 1,
    "attributes": {
      "BusinessParking": "{'garage': True, 'street': False, 'validated': False, 'lot': False, 'valet': False}",
      "BikeParking": "True",
      "RestaurantsPriceRange2": "2",
      "ByAppointmentOnly": "False",
      "BusinessAcceptsCreditCards": "True",
      "GoodForKids": "False"
    },
    "categories": "Shopping, Cosmetics & Beauty Supply, Skin Care, Beauty & Spas, Hair Salons",
    "hours": {
      "Monday": "11:0-19:0",
      "Tuesday": "11:0-19:0",
      "Wednesday": "11:0-19:0",
      "Thursday": "11:0-19:0",
      "Friday": "11:0-19:0",
      "Saturday": "11:0-19:0",
      "Sunday": "11:0-18:0"
    }
  },
  {
    "business_id": "iWxpWN3ovNctxZ81icllIg",
    "name": "Ulta Beauty",
    "address": "2785 E Irlo Bronson Memorial Hwy, Ste 300",
    "city": "Kissimmee",
    "state": "FL",
    "postal_code": "34744",
    "latitude": 28.2646193,
    "longitude": -81.3321674,
    "stars": 4.0,
    "review_count": 13,
    "is_open": 1,
    "attributes": {
      "BikeParking": "False",
      "BusinessAcceptsCreditCards": "True",
      "RestaurantsPriceRange2": "2",
      "ByAppointmentOnly": "False",
      "BusinessParking": "None"
    },
    "categories": "Shopping, Beauty & Spas, Cosmetics & Beauty Supply, Hair Salons, Makeup Artists, Skin Care",
    "hours": {
      "Monday": "10:0-19:0",
      "Tuesday": "10:0-19:0",
      "Wednesday": "10:0-19:0",
      "Thursday": "10:0-19:0",
      "Friday": "10:0-19:0",
      "Saturday": "10:0-19:0",
      "Sunday": "11:0-18:0"
    }
  },
  {
    "business_id": "GIN9nnQh-LTEBKtsNZp6vA",
    "name": "Pain Management Consultants",
    "address": "9155 SW Barnes Rd, Ste 934",
    "city": "Portland",
    "state": "OR",
    "postal_code": "97225",
    "latitude": 45.510375,
    "longitude": -122.77029,
    "stars": 3.0,
    "review_count": 9,
    "is_open": 1,
    "attributes": {
      "ByAppointmentOnly": "True",
      "BusinessAcceptsCreditCards": "True"
    },
    "categories": "Pain Management, Health & Medical, Doctors",
    "hours": null
  },
  {
    "business_id": "bTdOMfM1Lxa7reSi2C4Akw",
    "name": "Ulta Beauty",
    "address": "32 District Ave",
    "city": "Dorchester",
    "state": "MA",
    "postal_code": "02125",
    "latitude": 42.3260164201,
    "longitude": -71.0621259875,
    "stars": 3.0,
    "review_count": 22,
    "is_open": 1,
    "attributes": null,
    "categories": "Cosmetics & Beauty Supply, Shopping, Hair Salons, Beauty & Spas, Skin Care",
    "hours": {
      "Monday": "10:0-19:0",
      "Tuesday": "10:0-19:0",
      "Wednesday": "10:0-19:0",
      "Thursday": "10:0-19:0",
      "Friday": "10:0-19:0",
      "Saturday": "10:0-19:0",
      "Sunday": "11:0-18:0"
    }
  },
  {
    "business_id": "iovwMD_uDjR9e4nlktIZWg",
    "name": "Ulta Beauty",
    "address": "6 Shipyard Dr",
    "city": "Hingham",
    "state": "MA",
    "postal_code": "02043",
    "latitude": 42.2500485,
    "longitude": -70.922998,
    "stars": 3.5,
    "review_count": 11,
    "is_open": 1,
    "attributes": {
      "BusinessParking": "{'garage': False, 'street': False, 'validated': False, 'lot': True, 'valet': False}"
    },
    "categories": "Beauty & Spas, Cosmetics & Beauty Supply, Skin Care, Hair Salons, Shopping",
    "hours": {
      "Monday": "10:0-19:0",
      "Tuesday": "10:0-19:0",
      "Wednesday": "10:0-19:0",
      "Thursday": "10:0-19:0",
      "Friday": "10:0-19:0",
      "Saturday": "10:0-19:0",
      "Sunday": "11:0-18:0"
    }
  },
  {
    "business_id": "7LzaQMplKn3Wwk7fIKq-Jw",
    "name": "Haultail",
    "address": "211 E 7th St, Ste - 620",
    "city": "Austin",
    "state": "TX",
    "postal_code": "78701",
    "latitude": 30.2683399,
    "longitude": -97.7409906,
    "stars": 3.5,
    "review_count": 6,
    "is_open": 1,
    "attributes": {
      "BusinessAcceptsCreditCards": "True"
    },
    "categories": "Couriers & Delivery Services, Junk Removal & Hauling, Movers, Local Services, Home Services",
    "hours": {
      "Monday": "0:0-0:0",
      "Tuesday": "0:0-0:0",
      "Wednesday": "0:0-0:0",
      "Thursday": "0:0-0:0",
      "Friday": "0:0-0:0",
      "Saturday": "0:0-0:0",
      "Sunday": "0:0-0:0"
    }
  },
  {
    "business_id": "7fMO9zVEsDj2pPuWQtshAA",
    "name": "Columbus Sleep Consultants",
    "address": "99 N Brice Rd, Ste 300, Ste 300/350",
    "city": "Columbus",
    "state": "OH",
    "postal_code": "43213",
    "latitude": 39.9849225,
    "longitude": -82.8271612,
    "stars": 2.0,
    "review_count": 10,
    "is_open": 1,
    "attributes": {
      "BusinessAcceptsCreditCards": "True",
      "ByAppointmentOnly": "True"
    },
    "categories": "Nutritionists, Sleep Specialists, Diagnostic Services, Health & Medical",
    "hours": {
      "Monday": "8:30-17:0",
      "Tuesday": "8:30-17:0",
      "Wednesday": "8:30-17:0",
      "Thursday": "8:30-17:0",
      "Friday": "8:30-17:0"
    }
  },
  {
    "business_id": "bd9D89hwmaivUffuOjeg-g",
    "name": "Lit Electrical Consultants",
    "address": "",
    "city": "Atlanta",
    "state": "GA",
    "postal_code": "30312",
    "latitude": 33.7440941,
    "longitude": -84.377861,
    "stars": 4.5,
    "review_count": 7,
    "is_open": 1,
    "attributes": {
      "BusinessAcceptsCreditCards": "True"
    },
    "categories": "Electricians, Home Services",
    "hours": {
      "Monday": "7:0-17:0",
      "Tuesday": "7:0-17:0",
      "Wednesday": "7:0-17:0",
      "Thursday": "7:0-17:0",
      "Friday": "7:0-17:0",
      "Saturday": "9:0-16:0"
    }
  },
  {
    "business_id": "-vUJDLAbK9JWchf2K6nVGQ",
    "name": "Holistic Consultation",
    "address": "2060 N High St, Ste N",
    "city": "Columbus",
    "state": "OH",
    "postal_code": "43201",
    "latitude": 40.0045413,
    "longitude": -83.0083266,
    "stars": 2.5,
    "review_count": 6,
    "is_open": 1,
    "attributes": {
      "BusinessAcceptsCreditCards": "True",
      "AcceptsInsurance": "True",
      "WiFi": "u'free'",
      "ByAppointmentOnly": "True"
    },
    "categories": "Local Services, Psychologists, Career Counseling, Health & Medical, Professional Services, Counseling & Mental Health, Education, College Counseling",
    "hours": {
      "Monday": "9:0-17:0",
      "Tuesday": "9:0-17:0",
      "Wednesday": "8:0-17:0",
      "Thursday": "9:0-17:0",
      "Friday": "9:0-17:0"
    }
  },
  {
    "business_id": "jY_71zRwGt31kT8FrVcYRQ",
    "name": "Ulta Beauty",
    "address": "6775 Eagle Watch Dr, Ste 150, Lee Vista Promenade",
    "city": "Orlando",
    "state": "FL",
    "postal_code": "32822",
    "latitude": 28.4656517,
    "longitude": -81.3057707,
    "stars": 3.0,
    "review_count": 30,
    "is_open": 1,
    "attributes": {
      "BusinessAcceptsCreditCards": "True",
      "RestaurantsPriceRange2": "3",
      "BusinessParking": "{'garage': False, 'street': False, 'validated': False, 'lot': False, 'valet': False}",
      "BikeParking": "True",
      "ByAppointmentOnly": "True"
    },
    "categories": "Beauty & Spas, Cosmetics & Beauty Supply, Skin Care, Hair Salons, Shopping",
    "hours": {
      "Monday": "10:0-19:0",
      "Tuesday": "10:0-19:0",
      "Wednesday": "10:0-19:0",
      "Thursday": "10:0-19:0",
      "Friday": "10:0-19:0",
      "Saturday": "10:0-19:0",
      "Sunday": "11:0-18:0"
    }
  },
  {
    "business_id": "D2GTjI5KqeZtVCpE951azw",
    "name": "Ulta Beauty",
    "address": "1285 Polaris Pkwy",
    "city": "Columbus",
    "state": "OH",
    "postal_code": "43240",
    "latitude": 40.139912,
    "longitude": -82.985856,
    "stars": 3.0,
    "review_count": 23,
    "is_open": 1,
    "attributes": {
      "BusinessParking": "{'garage': False, 'street': False, 'validated': False, 'lot': True, 'valet': False}",
      "RestaurantsPriceRange2": "2",
      "GoodForKids": "False",
      "BikeParking": "True",
      "ByAppointmentOnly": "False",
      "BusinessAcceptsCreditCards": "False"
    },
    "categories": "Beauty & Spas, Hair Salons, Shopping, Cosmetics & Beauty Supply",
    "hours": {
      "Monday": "10:0-19:0",
      "Tuesday": "10:0-19:0",
      "Wednesday": "10:0-19:0",
      "Thursday": "10:0-19:0",
      "Friday": "10:0-19:0",
      "Saturday": "10:0-19:0",
      "Sunday": "11:0-18:0"
    }
  },
  {
    "business_id": "iEcLqPSXmFY5Csm49v_9lA",
    "name": "Allergy and Asthma Consultants",
    "address": "5555 Peachtree Dunwoody Rd, Ste 325",
    "city": "Atlanta",
    "state": "GA",
    "postal_code": "30342",
    "latitude": 33.9057748,
    "longitude": -84.3519859,
    "stars": 3.5,
    "review_count": 16,
    "is_open": 1,
    "attributes": {
      "AcceptsInsurance": "True",
      "BusinessAcceptsCreditCards": "True",
      "ByAppointmentOnly": "True"
    },
    "categories": "Health & Medical, Allergists, Doctors",
    "hours": {
      "Monday": "8:30-20:0",
      "Tuesday": "9:0-17:0",
      "Wednesday": "9:0-17:0",
      "Thursday": "9:0-17:0",
      "Friday": "8:30-12:30"
    }
  },
  {
    "business_id": "_MuKyhNX_MIrhT3cHUeQOg",
    "name": "Ulta Beauty",
    "address": "120 Perimeter Ctr W, Ste 200",
    "city": "Dunwoody",
    "state": "GA",
    "postal_code": "30346",
    "latitude": 33.926317,
    "longitude": -84.342584,
    "stars": 3.0,
    "review_count": 50,
    "is_open": 1,
    "attributes": {
      "RestaurantsPriceRange2": "2",
      "ByAppointmentOnly": "False",
      "GoodForKids": "False",
      "BusinessParking": "{'garage': False, 'street': False, 'validated': False, 'lot': True, 'valet': False}",
      "BusinessAcceptsCreditCards": "True",
      "BikeParking": "False"
    },
    "categories": "Beauty & Spas, Cosmetics & Beauty Supply, Hair Salons, Shopping, Hair Stylists, Skin Care",
    "hours": {
      "Monday": "10:0-19:0",
      "Tuesday": "10:0-19:0",
      "Wednesday": "10:0-19:0",
      "Thursday": "10:0-19:0",
      "Friday": "10:0-19:0",
      "Saturday": "10:0-19:0",
      "Sunday": "11:0-18:0"
    }
  },
  {
    "business_id": "inuSppb0B6EXHMrm1pVNdg",
    "name": "Ulta Beauty",
    "address": "375 E Altamonte Dr",
    "city": "Altamonte Springs",
    "state": "FL",
    "postal_code": "32701",
    "latitude": 28.665171,
    "longitude": -81.380325,
    "stars": 3.5,
    "review_count": 40,
    "is_open": 1,
    "attributes": {
      "GoodForKids": "False",
      "BusinessAcceptsCreditCards": "True",
      "BikeParking": "True",
      "RestaurantsPriceRange2": "2",
      "ByAppointmentOnly": "False",
      "BusinessParking": "{'garage': False, 'street': False, 'validated': False, 'lot': True, 'valet': False}"
    },
    "categories": "Blow Dry/Out Services, Cosmetics & Beauty Supply, Shopping, Hair Stylists, Hair Salons, Skin Care, Beauty & Spas",
    "hours": {
      "Monday": "10:0-19:0",
      "Tuesday": "10:0-19:0",
      "Wednesday": "10:0-19:0",
      "Thursday": "10:0-19:0",
      "Friday": "10:0-19:0",
      "Saturday": "10:0-19:0",
      "Sunday": "11:0-18:0"
    }
  },
  {
    "business_id": "FXjStkZOO_JL_EHado5ZXQ",
    "name": "Katie Bartley: Sleep Consultant",
    "address": "",
    "city": "Austin",
    "state": "TX",
    "postal_code": "73301",
    "latitude": 30.2228447,
    "longitude": -97.7473572,
    "stars": 4.5,
    "review_count": 10,
    "is_open": 0,
    "attributes": {
      "ByAppointmentOnly": "True",
      "BusinessAcceptsCreditCards": "True",
      "AcceptsInsurance": "False"
    },
    "categories": "Sleep Specialists, Health & Medical, Local Services",
    "hours": {
      "Monday": "8:30-18:30",
      "Tuesday": "8:30-18:30",
      "Wednesday": "8:30-18:30",
      "Thursday": "8:30-18:30",
      "Friday": "8:30-18:30",
      "Saturday": "8:30-18:30",
      "Sunday": "8:30-18:30"
    }
  },
  {
    "business_id": "6UL8ZYKO79knxDQZ6oOcOw",
    "name": "Pediatric Cardiology Consultants",
    "address": "2501 N Orange Ave, Ste 310",
    "city": "Orlando",
    "state": "FL",
    "postal_code": "32804",
    "latitude": 28.574564,
    "longitude": -81.372209,
    "stars": 4.0,
    "review_count": 5,
    "is_open": 1,
    "attributes": {
      "ByAppointmentOnly": "True"
    },
    "categories": "Health & Medical, Cardiologists, Doctors",
    "hours": null
  },
  {
    "business_id": "cIwFM9qDzpdr1gQK9WQ9sA",
    "name": "El Valle de la Sultana Market",
    "address": "121 Bennington St",
    "city": "Boston",
    "state": "MA",
    "postal_code": "02128",
    "latitude": 42.3764579,
    "longitude": -71.0343389,
    "stars": 3.0,
    "review_count": 5,
    "is_open": 1,
    "attributes": {
      "RestaurantsPriceRange2": "1",
      "BusinessParking": "{'garage': False, 'street': False, 'validated': False, 'lot': False, 'valet': False}"
    },
    "categories": "Food, Ethnic Food, Imported Food, Grocery, Specialty Food",
    "hours": null
  },
  {
    "business_id": "1nyKCTu9jqgEN4jnYYe_pw",
    "name": "Sultana's Bakery & Cafe",
    "address": "1585 Commonwealth Ave",
    "city": "Brighton",
    "state": "MA",
    "postal_code": "02135",
    "latitude": 42.3441952,
    "longitude": -71.1430607,
    "stars": 4.5,
    "review_count": 81,
    "is_open": 1,
    "attributes": {
      "RestaurantsGoodForGroups": "False",
      "RestaurantsAttire": "u'casual'",
      "RestaurantsDelivery": "True",
      "BusinessParking": "{'garage': False, 'street': True, 'validated': False, 'lot': False, 'valet': False}",
      "GoodForKids": "True",
      "BikeParking": "True",
      "RestaurantsTableService": "False",
      "BusinessAcceptsBitcoin": "False",
      "WiFi": "u'free'",
      "DogsAllowed": "False",
      "Caters": "True",
      "RestaurantsReservations": "True",
      "RestaurantsPriceRange2": "1",
      "NoiseLevel": "u'quiet'",
      "GoodForMeal": "{'dessert': False, 'latenight': False, 'lunch': True, 'dinner': False, 'brunch': False, 'breakfast': True}",
      "Ambience": "{'touristy': False, 'hipster': False, 'romantic': False, 'divey': False, 'intimate': False, 'trendy': False, 'upscale': False, 'classy': False, 'casual': False}",
      "RestaurantsTakeOut": "True",
      "OutdoorSeating": "False",
      "Alcohol": "u'none'",
      "BusinessAcceptsCreditCards": "True",
      "HasTV": "False"
    },
    "categories": "Turkish, Cafes, Bakeries, Mediterranean, Restaurants, Food",
    "hours": {
      "Monday": "0:0-0:0",
      "Wednesday": "9:0-16:0",
      "Thursday": "9:0-16:0",
      "Friday": "9:0-16:0",
      "Saturday": "9:0-17:0",
      "Sunday": "9:0-17:0"
    }
  },
  {
    "business_id": "e8qmfRtp8SzFafDbWRQCDA",
    "name": "Retina Consultants of Austin",
    "address": "2500 W William Cannon Dr, Ste 801",
    "city": "Austin",
    "state": "TX",
    "postal_code": "78745",
    "latitude": 30.2050665,
    "longitude": -97.8102077,
    "stars": 3.0,
    "review_count": 6,
    "is_open": 1,
    "attributes": {
      "BusinessAcceptsCreditCards": "True",
      "AcceptsInsurance": "True",
      "ByAppointmentOnly": "True"
    },
    "categories": "Doctors, Ophthalmologists, Health & Medical, Retina Specialists",
    "hours": {
      "Monday": "8:0-17:30",
      "Tuesday": "8:0-17:30",
      "Wednesday": "8:0-17:30",
      "Thursday": "8:0-17:30",
      "Friday": "8:0-17:30"
    }
  },
  {
    "business_id": "5AjF3OMWcQTmfnWowChm0A",
    "name": "Sterling Auto Consultants",
    "address": "4180 Lawrenceville Hwy",
    "city": "Tucker",
    "state": "GA",
    "postal_code": "30084",
    "latitude": 33.8521488678,
    "longitude": -84.2112712245,
    "stars": 2.5,
    "review_count": 9,
    "is_open": 1,
    "attributes": {
      "BusinessAcceptsCreditCards": "True"
    },
    "categories": "Used Car Dealers, Car Dealers, Automotive",
    "hours": {
      "Monday": "10:0-18:0",
      "Tuesday": "10:0-18:0",
      "Wednesday": "10:0-18:0",
      "Thursday": "10:0-18:0",
      "Friday": "10:0-18:0",
      "Saturday": "10:0-18:0"
    }
  },
  {
    "business_id": "M299QQ34mFS-a8LC43B_VQ",
    "name": "Child Neurology Consultants of Austin",
    "address": "6811 Austin Center Blvd, Ste 400",
    "city": "Austin",
    "state": "TX",
    "postal_code": "78731",
    "latitude": 30.3509567471,
    "longitude": -97.7505695816,
    "stars": 3.0,
    "review_count": 9,
    "is_open": 1,
    "attributes": {
      "AcceptsInsurance": "True",
      "ByAppointmentOnly": "True",
      "BusinessAcceptsCreditCards": "True"
    },
    "categories": "Health & Medical, Counseling & Mental Health, Neurologist, Doctors",
    "hours": {
      "Monday": "8:0-17:0",
      "Tuesday": "8:0-17:0",
      "Wednesday": "8:0-17:0",
      "Thursday": "8:0-17:0",
      "Friday": "8:0-17:0"
    }
  },
  {
    "business_id": "sY8dsoLY5Z3ODLqPmcIB0A",
    "name": "Ulta Beauty",
    "address": "3720 Easton Market",
    "city": "Columbus",
    "state": "OH",
    "postal_code": "43219",
    "latitude": 40.0522881,
    "longitude": -82.924902,
    "stars": 3.5,
    "review_count": 42,
    "is_open": 1,
    "attributes": {
      "BusinessParking": "{'garage': False, 'street': False, 'validated': False, 'lot': True, 'valet': False}",
      "GoodForKids": "False",
      "RestaurantsPriceRange2": "2",
      "BikeParking": "False",
      "ByAppointmentOnly": "False",
      "BusinessAcceptsCreditCards": "False"
    },
    "categories": "Hair Salons, Shopping, Makeup Artists, Eyelash Service, Cosmetics & Beauty Supply, Skin Care, Beauty & Spas",
    "hours": {
      "Monday": "10:0-19:0",
      "Tuesday": "10:0-19:0",
      "Wednesday": "10:0-19:0",
      "Thursday": "10:0-19:0",
      "Friday": "10:0-19:0",
      "Saturday": "10:0-19:0",
      "Sunday": "11:0-18:0"
    }
  },
  {
    "business_id": "d9B7y-PjmrHZWbLNIntblQ",
    "name": "Pro-Tech Consultants Home Inspections",
    "address": "37 Linden St",
    "city": "Arlington",
    "state": "MA",
    "postal_code": "02476",
    "latitude": 42.419396,
    "longitude": -71.1795382,
    "stars": 5.0,
    "review_count": 54,
    "is_open": 1,
    "attributes": {
      "BusinessAcceptsCreditCards": "False",
      "ByAppointmentOnly": "True"
    },
    "categories": "Home Inspectors, Home Services, Financial Services, Home & Rental Insurance, Insurance",
    "hours": {
      "Monday": "0:0-0:0",
      "Tuesday": "9:0-21:0",
      "Wednesday": "9:0-21:0",
      "Thursday": "9:0-21:0",
      "Friday": "9:0-21:0",
      "Saturday": "9:0-21:0",
      "Sunday": "10:0-21:0"
    }
  },
  {
    "business_id": "jD3hkAaDAUvmbi2Pt8T-EQ",
    "name": "Ulta Beauty",
    "address": "10206 Soutwest Washington Square Rd",
    "city": "Tigard",
    "state": "OR",
    "postal_code": "97223",
    "latitude": 45.44669,
    "longitude": -122.777064,
    "stars": 3.0,
    "review_count": 44,
    "is_open": 1,
    "attributes": {
      "BusinessAcceptsCreditCards": "True",
      "ByAppointmentOnly": "True",
      "BikeParking": "False",
      "RestaurantsPriceRange2": "2",
      "BusinessParking": "{'garage': False, 'street': False, 'validated': False, 'lot': False, 'valet': False}",
      "GoodForKids": "False"
    },
    "categories": "Shopping, Cosmetics & Beauty Supply, Beauty & Spas, Makeup Artists, Skin Care, Hair Salons",
    "hours": {
      "Monday": "10:0-19:0",
      "Tuesday": "10:0-19:0",
      "Wednesday": "10:0-19:0",
      "Thursday": "10:0-19:0",
      "Friday": "10:0-19:0",
      "Saturday": "10:0-19:0",
      "Sunday": "11:0-18:0"
    }
  },
  {
    "business_id": "9BSIxIkwl3qB3wKRTcM-dA",
    "name": "Dedham Ophthalmic Consultants and Surgeons",
    "address": "980 Washington St, Ste 120",
    "city": "Dedham",
    "state": "MA",
    "postal_code": "02026",
    "latitude": 42.2294832,
    "longitude": -71.1851661,
    "stars": 3.0,
    "review_count": 10,
    "is_open": 1,
    "attributes": {
      "BusinessParking": "{'garage': False, 'street': False, 'validated': False, 'lot': False, 'valet': False}",
      "RestaurantsPriceRange2": "3",
      "AcceptsInsurance": "True",
      "ByAppointmentOnly": "True"
    },
    "categories": "Optometrists, Health & Medical, Eyewear & Opticians, Shopping, Doctors",
    "hours": {
      "Monday": "8:30-17:0",
      "Tuesday": "8:30-18:0",
      "Wednesday": "8:30-17:0",
      "Thursday": "8:30-17:0",
      "Friday": "8:30-17:0"
    }
  },
  {
    "business_id": "FtVVi4N3vkQ9UHyfCMrBkg",
    "name": "Ulta Beauty",
    "address": "2654 E Colonial Dr",
    "city": "Orlando",
    "state": "FL",
    "postal_code": "32803",
    "latitude": 28.549204,
    "longitude": -81.34924,
    "stars": 3.5,
    "review_count": 35,
    "is_open": 1,
    "attributes": {
      "BikeParking": "True",
      "BusinessParking": "{'garage': False, 'street': False, 'validated': False, 'lot': True, 'valet': False}",
      "ByAppointmentOnly": "False",
      "RestaurantsPriceRange2": "2",
      "BusinessAcceptsCreditCards": "True",
      "GoodForKids": "False"
    },
    "categories": "Hair Salons, Shopping, Cosmetics & Beauty Supply, Beauty & Spas, Skin Care",
    "hours": {
      "Monday": "10:0-19:0",
      "Tuesday": "10:0-19:0",
      "Wednesday": "10:0-19:0",
      "Thursday": "10:0-19:0",
      "Friday": "10:0-19:0",
      "Saturday": "10:0-19:0",
      "Sunday": "11:0-18:0"
    }
  }
]